Terminal log file
Date: 22.05.2018 - 17:34:21
-----------------------------------------------
‚þ00,5548.7292,N,03755.1208,E,1,07,1.5,145.2,M,14.2,M,,0000*5717:34:25.553> 
$GPRMC,143251.000,A,5548.7292,N,03755.1208,E,0.00,,220518,,,A*7117:34:25.553> 
$GPVTG,,T,,M,0.00,N,0.0,K,A*1317:34:25.553> 
$GPGGA,143252.000,5548.7292,N,6,104,46,21,49,228,28,27292,N,03755.1208,E,0.00,,220518,,,A*7217:34:26.524> 
$GPVTG,,T,,M,0.00,N,0.0,K,A*1317:34:26.524> 
7292,N,03755.1208,E,0.00,,220518,,,A*7217:34:27.028> 
$GPVTG,,T,,M,0.00,N,0.0,K,A*1317:34:27.028> 
.$GPGGA,143253.000,5548.7292,N,03755.1208,E,1,07,1.5,145.2,M,14.2,M,,0000*5517:34:27.240> 
$GPRMC,143253.000,A,5548.7292,N,03755.1208,E,0.00,,220518,,,A*7317:34:27.240> 
$GPVTG,,T,,M,0.00,N,0.0,K,A*1317:34:27.857> 
GPVTG,,T,,M,0.00,N,0.0,K,A*1317:34:27.986> 
3755.1208,E,1,07,1.5,145.2,M,14.2,M,,0000*5517:34:27.986> 
$GPRMC,14320.00,,220518,,,A*7417:34:28.237> 
$GPVTG,,T,,M,0.00,N,0.0,K,A*1317:34:28.495> 
,0.0,K,A*1317:34:28.630> 
,,A*7417:34:28.630> 
$GPVTG,,T,,M,0.00,N,E,1,07,1.5,145.2,M,14.2,M,,0000*5217:34:28.630> 
$GPRMC,143254.000,A,5548.7292,N,03755.1208,E,,0.0,K,A*1317:34:29.021> 
,,A*7417:34:29.021> 
$GPVTG,,T,,M,0.00,N,E,1,07,1.5,145.2,M,14.2,M,,0000*5217:34:29.021> 
$GPRMC,143254.000,A,5548.7292,N,03755.120$GPGGA,143255.000,5548.7292,N,03755.1208,E,1,07,1.5,145.2,M,14.2,M,,0000*5317:34:29.503> 
$GPRMC,143255.000,A,5548.7292,N,03755.1208,E,0.00,,220518,,,A*7517:34:29.503> 
$GPVTG,,T,,M,0.00,N,0.0,K,A*1317:34:29.503> 
$GPGGA,143256.000,5548.7292,N,03755.1208,E,1,07,1.5,145.2,M,14.2,M,,0000*5017:34:30.271> 
$GPRMC,143256.000,A,5548.7292,N,03755.1208,E,0.00,,220518,,,A*7617:34:30.271> 
$GPVTG,,T,,M,0.00,N,0.0,K,A*1317:34:30.271> 
$GPGGA,143257.000,5548.7292,N,037521,3,10,02,05,062,,09,02,352,*7417:34:31.468> 
$GPRMC,143257.000,A,5548.7292,N,03755.1208,E,0.00,,220518,,,A*7717:34:31.932> 
$GPVTG,,T,,M,0.00,N,0.0,K,A*1317:34:31.932> 
A,5548.7292,N,03755.1208,E,0.00,,220518,,,A*7817:34:32.257> 
$GPVTG,,T,,M,0.00,N,0.0,K,A*1317:34:32.708> 
1317:34:32.822> 
48.7292,N,03755.1208,E,0.00,,220518,,,A*7817:34:32.822> 
$GPVTG,,T,,M,0.00,N,0.0,K,A*
$GPRMC,143258.000,00,A,5548.7292,N,03755.1208,E,0.00,,220518,,,A*7917:34:33.582> 
$GPVTG,,T,,M,0.00,N,0.0,K,A*1317:34:33.582> 
17:34:34.011> 
$GPVTG,,T,,M,0.00,N,0.0,K,A*1317:34:34.011> 
,,220518,,,A*79.6,145.2,M,14.2,M,,0000*5D17:34:34.011> 
$GPRMC,143259.0$GPGGA,143300.000,5548.7292,N,03755.1208,E,1,06,2.1,145.2,M,14.2,M,,0000*5417:34:34.358> 
$GPRMC,143300.000,A,5548.7292,N,03755.1208,E,0.00,,220518,,,A*7417:34:34.358> 
$GPVTG,,T,,M,0.00,N,0.0,K,A*1317:34:34.358> 
$GPGGA,143300.000,5548.7292,N,03755.1208,E,1,06,2.1,145.2,M,14.2,M,,0000*5417:34:34.926> 
$GPRMC,143300.000,A,5548.7292,N,03755.12$GPGGA,143301.000,5548.7292,N,03755.1208,E,1,05,2.2,145.2,M,14.2,M,,0000*5517:34:35.371> 
$GPRMC,143301.000,A,5548.7292,N,03755.1208,E,0.00,,220518,,,A*7517:34:35.371> 
$GPVTG,,T,,M,0.00,N,0.0,K,A*1317:34:35.371> 
$GPGGA,143301.000,5548.7292,N,03755.1208,E,1,05,2.2,145.2,M,14.2,M,,0000*5517:34:35.811> 
$GPRMC,143301.000,A,5548.7292,N,03755.1208,E,0$GPGGA,143302.000,5548.7292,N,03755.1208,E,1,05,2.2,145.2,M,14.GSV,3,3,10,02,05,062,,09,02,352,*7417:34:36.693> 
$GPRMC,143302.000,A,5548.7292,N,03755.1208$GPGGA,143303.000,5548.7292,N,03755.1208,E,1,0518,,,A*7717:34:37.244> 
$GPVTG,,T,,M,0.00,N,0.0,K,A*1317:34:37.648> 
.0,K,A*1317:34:37.968> 

$GPVTG,,T,,M,0.00,N,0PRMC,143303.000,A,5548.7292,N,03755.1208,E,0.00,,220$GPGGA,143304.0$GPGGA,143305.000,5548.7292,N,03755.1208,E,1,07,1.5,145.2,M,14.2,M,,0000*5717:34:39.186> 
$GPRMC,143305.000,A,5548.7292,N,03755.1208,E,0.00,,220518,,,A*7117:34:39.643> 
$GPVTG,,T,,M,0.00,N,0.0,K,A*1317:34:39.643> 
$GPGGA,143306.000,,E,0.00,,220518,,,A*7217:34:40.337> 
$GPVTG,,T,,M,0.00,N,0.0,K,A*1317:34:40.337> 
*7217:34:40.585> 
$GPVTG,,T,,M,0.00,N,0.0,K,A*1317:34:40.585> 
.2,M,14.2,M,,0000*5417:34:40.585> 
$GPRMC,143306.000,A,5548.7292,N,03755.1208$GPGGA,143307.000,5548.7292,N,03755.1208,E,1,07,1.5,145.2,M,14.2,M,,0000*5517:34:41.205> 
$GPGSA,A,3,29,31,26,21,25,16,20,,,,,,2.5,1.5,2.0*3F17:34:41.205> 
$GPGSV,3,1,10,29,66,104,47,21,49,228,30,26,49,286,33,05,35,060,26*7617:34:41.618> 
$GPGSV,3,2,10,16,27,311,25,25,21,167,20,20,15,179,20,31,12,241,37*7017:34:41.618> 
$GPGSV,3,3,10,02,05,062,,09,02,352,21*7717:34:41.618> 
$GPRMC,143307.000,A,5548.7292,N,03755.1208,E,0.00,,220518,,,A*7317:34:41.618> 
$GPVTG,,T,,M,0.$GPGGA,143308.000,5548.7292,N,03755.1208,E,1,07,1.5,145.2,M,14.2,M,,0000*5A17:34:42.491> 
$GPRMC,143308.000,A,5548.7292,N,03755.1208,E,0.00,,220518,,,A*7C17:34:42.491> 
$GPVTG,,T,,M,0.00,N,0.0,K,A*1317:34:42.491> 
$GPGGA,143309.000,5548.7292,N,03755.1208,E,1,07,1.5,145.2,M,14.2,M,,0000*5B17:34:43.275> 
$GPRMC,143309.000,A,5548.7292,N,03755.1208,E,0.00,,220518,,,A*7D17:34:43.275> 
$GPVTG,,T,,M,0.00,N,0.0,K,A*1317:34:43.664> 
$GPGGA,143310.000,5548.7292,N,03755.1208,E,1,07,1.5,145.2,M,14.2,M,,0000*5317:34:44.247> 
$GPRMC,143310.000,A,5548.7292,N,03755.1208,E,0.00,,220518,,,A*7517:34:44.247> 
$GPVTG,,T,,M,0.00,N,0.0,K,A*1317:34:44.912> 
$GPGGA,143311.000,5548.7292,N,03755.1208,E,1,07,1.5,145.2,M,14.2,M,,0000*5217:34:45.217> 
$GPRMC,143311.000,A,5548.7292,N,03755.1208,E,0.00,,220518,,,A*7417:34:45.805> 
$GPVTG,,T,,M,0.00,N,0.0,K,A*1317:34:45.805> 
548.7292,N,03755.1208,E,1,07,1.5,145.2,M,14.2,M,,0000*5117:34:46.162> 
$GPGSA,A,3,29,31,2.000,A,5548.7292,N,03755.1208,E,0.00,,220518,,,A*7717:34:46.555> 
$GPVTG,,T,,M,0.00,N,0.0,K,A*1317:34:46.555> 
2.000,A,5548.7292,N,03755.1208,E,0.00,,220518,,,A*7717:34:47.011> 
$GPVTG,,T,,M,0.00,N$GPGGA,143313.000,5548.7292,N,03755.1208,E,1,07,1.5,145.2,M,14.2,M,,0000*5017:34:47.217> 
$GPRMC,143313.000,A,5548.7292,N,03755.1208,E,0.00,,220518,,,A*7617:34:47.562> 
$GPVTG,,T,,M,0.00,N,0.0,K,A*1317:34:47.562> 
,,A*7617:34:48.018> 
$GPVTG,,T,,M,0.00,N,0.0,K,A*1317:34:48.018> 
,E,1,07,1.5,145.2,M,14.2,M,,0000*5017:34:48.018> 
$GPRMC,143313.000,A,5548.7292,N,03755.1208,E,0.00,,220518,1,167,21,20,15,179$GPGGA,143314.000,5548.7292,N,03755.1208,E,1,06,2.6,145.2,M,14.2,M,,0000*5617:34:48.511> 
$GPRMC,143314.000,A,5548.7292,N,03755.1208,E,0.00,,220518,,,A*7117:34:48.511> 
$GPVTG,,T,,M,0.00,N,0.0,K,A*1317:34:48.511> 
$GPGGA,143314.000,548.7292,N,03755.1208,E,48.7292,N,03755.120820518,,,A*7017:34:49.232> 
$GPVTG,,T,,M,0.00,N,0.0,K,A*1317:34:49.513> 
,,M,0.00,N,0.0,K,A*1317:34:49.933> 
,,0000*5717:34:49.933> 
$GPRMC,143315.000,A,5548.7292,N,03755.1208,E,0.00,,2,5548.7292,N,03755.1208,E,0.00,,220518,,,A*7317:34:50.234> 
$GPVTG,,T,,M,0.00,N,0.0,K,A*1317:34:50.623> 
0.00,N,0.0,K,A*1317:34:51.036> 
1208,E,0.00,,220518,,,A*7317:34:51.036> 
$GPVTG,,T,,M,14.2,M,,0000*5517:34:51.036> 
$GPRMC,143316.000,A351,*7717:34:51.508> 
$GPRMC,143317.000,A,5548.7292,N,03755.1208,E,0.00,,220518,,,A*7217:34:51.508> 
$GPVTG,,T,,M,0.00,N,0.0,K,A*1317:34:52.029> 
,N,0.0,K,A*1317:34:52.068> 
$GPGGA,143318.000,5548.7292,N,03755.1208,E,1,07,1.5,145.2,M,14.2,M,,0000*5B17:34:52.642> 
$GPRMC,143318.000,A,5548.7292,N,03755.1208,E,0.00,,220518,,,A*7D17:34:52.642> 
$GPVTG,,T,,M,0.00,N,0.0,K,A*1317:34:52.642> 
,14.2,M,,0000*5B17:34:52.975> 
$GPRMC,143318.000,A,5548.7292,N,03755.1208,E,0.00,,220518,,,A*7D$GPGGA,143319.000,5548.7292,N,03755.1208,E,1,07,1.5,145.2,M,14.2,M,,0000*5A17:34:53.227> 
$GPRMC,143319.000,A,5548.7292,N,03755.1208,E,0.00,,220518,,,A*7C17:34:53.227> 
$GPVTG,,T,,M,0.00,N,0.0,K,A*1317:34:53.853> 
TG,,T,,M,0.00,N,0.0,K,A*1317:34:54.026> 
N,03755.1208,E,1,07,1.5,145.2,M,14.2,M,,0000*5A17:34:54.026> 
$GPRMC,143319.000,A,5548.7292,N,03755.1208,E,0.00,,220518,,,A*7C17:34:54.026> 
$GPV66,104,47,21,49,228,31,26,49,285,34,05,35,060,31*7517:34:54.026> 
$GPG$GPGGA,143320.0$GPGGA,143321.000,5548.7292,N,03755.1208,E,1,07,1.5,145.2,M,14.2,M,,0000*5117:34:55.268> 
$GPRMC,143321.000,A,5548.7292,N,03755.1208,E,0.00,,220518,,,A*7717:34:55.268> 
$GPVTG,,T,,M,0.00,N,0.0,K,A*1317:34:55.622> 
00,5548.7292,N,0,31,12,240,33*7717:34:56.432> 
$GPGSV,3,3,11,02,05,062,,09,02,351,,39,25,195,25*4117:34:56.432> 
$GPRMC,143322.000,A,5548.7292,N,03755.1208,E,0.00,,220518,,,A*7417:34:56.915> 
$GPVTG,,T,,M,0.00,N,0.0,K,A*1317:34:56.915> 
$GPGGA,143323.000,5548.7292,N,03755.1208,E,1,07,1.5,145.2,M,14.2,M,,0000*5317:34:57.214> 
$GPRMC,143323.000,A,5548.7292,N,03755.1208,E,0.00,,220518,,,A*7517:34:57.676> 
$GPVTG,,T,,M,0.00,N,0.0,K,A*1317:34:57.676> 
7517:34:57.899> 
$GPVTG,,T,,M92,N,03755.1208,E,1,06,1.6,145.2,M,14.2,M,,0000*5617:34:58.269> 
$GPRMC,143324.000,A,5548.7292,N,03755.1208,E,0.00,,220518,,,A*7217:34:58.269> 
$GPVTG,,T,,M,0.00,N,0.0,K,A*1317:34:58.763> 
1317:34:58.979> 
,145.2,M,14.2,M,,0000$GPGGA,143325.000,5548.7292,N,03755.120
$GPVTG,,T,,M,0.00
$GPVTG,,T,,M,0.00,M,14.2,M,,0000*5717:34:59.281> 
$GPRMC,143325.000,A,5548.7292,N,03755.1208,E,0.00,,220518,,,A*7317:34:59.281> ,N,0.0,K,A*1317:34:59.685> 
$GPGGA,143326.000,5548.7292,N,03755.1208,E,1,06,1.6,145.2,M,14.2,M,,0000*5417:35:00.677> 
$GPRMC,143326.000,A,5548.7292,N,03755.1208,E,0.00,,220518,,,A*7017:35:00.677> 
$GPVTG,,T,,M,0.00,N,0.0,K,A*1317:35:00.677> 
$GPGGA,143327.000,5548.7292,N,03755.1208,E,1,06,1.6,145.2,M,14.2,M,,0000*5517:35:01.240> 
$GPGSA,A,3,29,31,26,21,16,20,,,,,,,2.6,1.6,2.1*3917:35:01.240> 
$GPGSV,3,1,10,29,66,104,47,21,49,228,34,26,49,285,34,05,35,060,30*7117:35:01.598> 
$GPGSV,3,2,10,16,27,311,21,25,21,167,13,20,15,179,29,31,12,240,33*7817:35:01.598> 
$GPGSV,3,3,10,02,05,062,,09,02,351,*7717:35:01.598> 
$GPRMC,143327.000,A,5548.7292,N,03755.1208,E,0.00,,220518,,,A*7117:35:01.598> 
$GPVTG,,T,,M,0.00,N,0.0,K,A*1317:35:01.598> 

$GPVTG,,T,,M,0.00,N,0.0,K,A*1317:35:02.618> 
A*1317:35:02.757> 
G,,T,,M,0.00,N,0.0,K,43328.000,A,5548.7292,N,03755.1208,E,0.00,,220518,,,A*7E17:35:02.757> A*1317:35:03.023> 
G,,T,,M,0.00,N,0.0,K,43328.000,A,5548.7292,N,03755.1GPRMC,143329.000,A,5548.7292,N,03755.1208,E,0.00,,220518,,,A*7F17:35:03.541> 
$GPVTG,,T,,M,0.00,N,0.0,K,A*1317:35:03.541> 
17:35:03.762> 
$GPVTG,,T,,M,0.00,N,0.0,K,A*1317:35:03.762> 
55.1208,E,0.00,,220518,,,A*7F2,M,,0000*5B17:35:03.762> 
$$GPGGA,143330.000,5548.7292,N,03755.1208,E,1,07,1.5,145.2,M,14.2,M,,0000*5117:35:04.236> 
$GPRMC,143330.000,A,5548.7292,N,03755.1208,E,0.00,,220518,,,A*7717:35:04.236> 
$GPVTG,,T,,M,0.00,N,0.0,K,A*1317:35:04.970> 
$GPGGA,143331.000,5548.7292,N,03755.1208,E,1,06,1.6,145.2,M,14.2,M,,0000*5217:35:05.256> 
$GPRMC,143331.000,A,5548.7292,N,03755.1208,E,0.00,,220518,,,A*7617:35:05.256> 
$GPVTG,,T,,M,0.00,N,0.0,K,A*1317:35:05.662> 
$GPGGA,143332.000,5548.7292,N,03755.1208,E,1,07,1.5,145.2,M,14.2,M,,0000*5317:35:06.228> 
$GPGSA,A,3,29,31,26,21,25,16,20,,,,,,2.5,1.5,2.0*3F17:35:06.228> 
$GPGSV,3,1,10,29,66,104,47,21,49,228,33,26,49,285,35,05,35,060,31*7617:35:06.648> 
$GPGSV,3,2,10,16,27,311,32,25,21,167,22,20,15,179,29,31,12,240,25*7F17:35:06.648> 
$GPGSV,3,3,10,02,05,062,,09,02,351,*7717:35:06.648> 
$GPRMC,143332.000,A,5548.7292,N,03755.1208,E,0.00,,220518,,,A*7517:35:06.648> 
$GPVTG,,T,,M,0.00,N,0.0,K,A*1317:35:06.648> 
$GPGGA,143333.000,5548.7292,N,03755.1208,E,1,07,1.5,145.2,M,14.2,M,,0000*5217:35:07.554> 
$GPRMC,143333.000,A,5548.7292,N,03755.1208,E,0.00,,220518,,,A*7417:35:07.554> 
$GPVTG,,T,,M,0.00,N,0.0,K,A*1317:35:07.554> 
$GPGGA,143334.000,5548.7292,N,03755.1208,E,1,07,1.5,145.2,M,14.2,M,,0000*5517:35:08.244> 
$GPRMC,143334.000,A,5548.7292,N,03755.1208,E,0.00,,220518,,,A*7317:35:08.244> 
$GPVTG,,T,,M,0.00,N,0.0,K,A*1317:35:08.559> 
$GPGGA,143335.000,5548.7292,N,03755.1208,E,1,00518,,,A*7217:35:09.233> 
$GPVTG,,T,,M,0.00,N,0.0,K,A*1317:35:09.530> 
00,N,0.0,K,A*1317:35:09.644> 
TG,,T,,M,0.617:35:09.644> 
$GPRMC,143335.000,A,5548.7292,N,03755.1208,E,0.00,,22$GPGGA,143336.000,5548.7292,N,03755.1208,E,1,06,1.7,145.2,M,14.2,M,,0000*5417:35:10.135> 
$GPRMC,143336.000,A,5548.7292,N,03755.1208,E,0.00,,220518,,,A*7117:35:10.429> 
$GPVTG,,T,,M,0.00,N,0.0,K,A*1317:35:10.429> 
$GPGGA,143337.000,5548.7292,N,03755.1208,E,1,06,1.7,145.2,M,14.2,M,,0000*5517:35:11.261> 
$GPGSA,A,3,29,26,21,25,16,20,,,,,,,2.7,1.7,2.0*3D17:35:11.261> 
$GPGSV,3,1,10,29,66,104,47,21,49,228,34,26,49,285,35,05,35,060,31*7117:35:11.749> 
$GPGSV,3,2,10,16,27,311,31,25,21,167,14,20,15,179,30,31,12,240,19*7E17:35:11.749> 
$GPGSV,3,3,10,02,05,062,,09,02,351,*7717:35:11.749> 
$GPRMC,143337.000,A,5548.7292,N,03755.1208,E,0.00,,220518,,,A*7017:35:11.749> 
$GPVTG,,T,,M,0.00,N,0.0,K,A*1317:35:11.749> 
$GPGGA,143338.000,5548.7292,N,03755.1208,E,1,07,1.5,145.2,M,14.2,M,,0000*5917:35:12.638> 
$GPRMC,143338.000,A,5548.7292,N,03755.1208,E,0.00,,220518,,,A*7F17:35:12.638> 
$GPVTG,,T,,M,0.00,N,0.0,K,A*1317:35:12.638> 
$GPGGA,143339.000,5548.7292,N,03755.1208,E,1,07,1.5,145.2,M,14.2,M,,0000*5817:35:13.259> 
$GPRMC,143339.000,A,5548.7292,N,03755.1208,E,0.00,,220518,,,A*7E17:35:13.259> 
$GPVTG,,T,,M,0.00,N,0.0,K,A*1317:35:13.753> 
$GPGGA,143340.000,5548.7292,N,03755.1208,17:35:14.241> 
$GPVTG,,T,,M,0.00,N,0.0,K,A*1317:35:14.398> 
N,0.0,K,A*1317:35:14.532> 
,0.00,4.2,M,,0000*5617:35:14.532> 
$GPRMC,143340.000,A,5548.7292,N,03755.1208,E,0.00,,220518,,,A*70$GPGGA,143341.000,5548.1317:35:15.268> 
1317:35:15.290> 
,N,03755.1208,E,1,06,1.6,145.2,M,14.2,M,,0000*5517:35:15.290> 
$GPRMC,143341.000,A,5548.7292,N,03755.1208,E,0.00,,220518,,,A*7117:35:15.290> 
$GPVTG,,T,,M,0.00,N,0.0,K,A*$GPGGA,143348.000,5548.7292,N,03755.1208,E,1,07,1.5,145.2,M,14.2,M,,0000*5E17:35:22.264> 
$GPRMC,143348.000,A,5548.7292,N,03755.1208,E,0.00,,220518,,,A*7817:35:22.264> 
$GPVTG,,T,,M,0.00,N,0.0,K,A*1317:35:22.264> 
$GPGGA,143349.000,5548.7292,N,03755.1208,E,1,06,1.6,145.2,M,14.2,M,,0000*5D17:35:23.309> 
$GPRMC,143349.000,A,5548.7292,N,03755.1208,E,0.00,,220518,,,A*7917:35:23.309> 
$GPVTG,,T,,M,0.00,N,0.0,K,A*1317:35:23.309> 
$GPGGA,143350.000,5548.7292,N,03755.1208,E,1,07,1.5,145.2,M,14.2,M,,0000*5717:35:24.220> 
$GPRMC,143350.000,A,5548.7292,N,03755.1208,E,0.00,,220518,,,A*7117:35:24.220> 
$GPVTG,,T,,M,0.00,N,0.0,K,A*1317:35:24.666> 
$GPGGA,143351.000,5548.7292,N,03755.1208,E,1,07,1.5,145.2,M,14.2,M,,0000*5617:35:25.225> 
$GPRMC,143351.000,A,5548.7292,N,03755.1208,E,0.00,,220518,,,A*7017:35:25.225> 
$GPVTG,,T,,M,0.00,N,0.0,K,A*1317:35:25.908> 
$GPGGA,143352.000,5548.7292,N,03755.1208,E,1,07,1.5,145.2,M,14.2,M,,0000*5517:35:26.219> 
$GPGSA,A,3,29,31,26,21,25,16,20,,,,,,2.5,1.5,2.0*3F17:35:26.219> 
$GPGSV,3,1,10,29,66,104,47,21,50,228,34,26,49,285,35,05,35,060,25*7C17:35:27.029> 
$GPGSV,3,2,10,16,27,311,31,25,21,167,21,20,15,179,32,31,12,240,31*7017:35:27.029> 
$GPGSV,3,3,10,02,05,062,,09,02,351,*7717:35:27.029> 
$GPRMC,143352.000,A,5548.7292,N,03755.1208,E,0.00,,220518,,,A*7317:35:27.029> 
$GPVTG,,T,,M,0.00,N,0.0,K,A*1317:35:27.029> 
$GPGGA,143353.000,5548.7292,N,03755.1208,E,1,07,1.5,145.2,M,14.2,M,,0000*5417:35:28.011> 
$GPRMC,143353.000,A,5548.7292,N,03755.1208,E,0.00,,220518,,,A*7217:35:28.011> 
$GPVTG,,T,,M,0.00,N,0.0,K,A*1317:35:28.011> 
$GPGGA,143354.000,5548.7292,N,03755.1208,E,1,07,1.5,145.2,M,14.2,M,,0000*5317:35:28.894> 
$GPRMC,143354.000,A,5548.7292,N,03755.1208,E,0.00,,220518,,,A*7517:35:28.894> 
$GPVTG,,T,,M,0.00,N,0.0,K,A*1317:35:28.894> 
$GPGGA,143355.000,5548.7292,N,03755.1208,E,1,07,1.5,145.2,M,14.2,M,,0000*5217:35:29.423> 
$GPRMC,143355.000,A,5548.7292,N,03755.1208,E,0.00,,220518,,,A*7417:35:29.423> 
$GPVTG,,T,,M,0.00,N,0.0,K,A*1317:35:29.423> 
$GPGGA,143356.000,5548.7292,N,03755.1208,E,1,07,1.5,145.2,M,14.2,M,,0000*5117:35:30.243> 
$GPRMC,143356.000,A,5548.7292,N,03755.1208,E,0.00,,220518,,,A*7717:35:30.243> 
$GPVTG,,T,,M,0.00,N,0.0,K,A*1317:35:30.621> 
$GPGGA,143357.000,5548.7292,N,03755.1208,E,1,07,1.5,145.2,M,14.2,M,,0000*5017:35:31.244> 
$GPGSA,A,3,29,31,26,21,25,16,20,,,,,,2.5,1.5,2.0*3F17:35:31.244> 
$GPGSV,3,1,10,29,66,104,48,21,50,228,35,26,49,285,35,05,35,060,18*7C17:35:31.573> 
$GPGSV,3,2,10,16,27,311,30,25,21,167,21,20,15,179,32,31,12,240,31*7117:35:31.573> 
$GPGSV,3,3,10,02,05,062,,09,02,351,*7717:35:31.573> 
$GPRMC,143357.000,A,5548.7292,N,03755.1208,E,0.00,,220518,,,A*7617:35:31.573> 
$GPVTG,,T,,M,0.00,N,0.0,K,A*1317:35:31.573> 
00,A,5548.7292,N,03755.1208,E,0.00,,220518,,,A*7917:35:32.280> 
$GPVTG,,T,,M,0.00,N,0.0,K,A*1317:35:32.280> 
00,A,5548.7292,N,03755.1208,E,0.00,,220518,,,A*7917:35:32.949> 
$GPVTG,,T,,M,0.00,N,0.0,K,A*1317:35:32.949> 
,143358.055.1208,E,0.00,,220518,,,A*7817:35:33.246> 
$GPVTG,,T,,M,0.00,N,0.0,K,A*1317:35:34.011> 
.0,K,A*1317:35:34.059> 
.00,,220518,,,A*7817:35:34.059> 
$GPVTG,,T,,M,0.00,N,0145.2,M,14.2,M,,0000*5E17:35:34.059> 
$GPRMC,143359.000,A,5548.7292,N,037$GPGGA,143400.000,5548.7292,N,03755.1208,E,1,07,1.5,145.2,M,14.2,M,,0000*5517:35:34.392> 
$GPRMC,143400.000,A,5548.7292,N,03755.1208,E,0.00,,220518,,,A*7317:35:34.392> 
$GPVTG,,T,,M,0.00,N,0.0,K,A*1317:35:34.392> 
$GPGGA,143401.000,5548.7292,N,03755.1208,E,1,07,1.5,145.2,M,14.2,M,,0000*5417:35:35.174> 
$GPRMC,143401.000,A,5548.7292,N,03755.1208,E,0.00,,220518,,,A*7217:35:35.622> 
$GPVTG,,T,,M,0.00,N,0.0,K,A*1317:35:35.622> 
$GPGGA,143402.000,5548.7292,N,03755.1208,E,1,07,1.5,145.2,M,14.2,M,,0000*5717:35:36.237> 
$GPGSA,A,3,29,31,26,21,25,16,20,,,,,,2.5,1.5,2.0*3F17:35:36.237> 
$GPGSV,3,1,10,2M,0.00,N,0.0,K,A*1317:35:36.613> 
M,0.00,N,0.0,K,A*1317:35:37.022> 
,36,26,49,285,35,05,35,060,28*7C17:35:37.022> 
$GPGSV,3,2,10,16,27,311,29,25,21,167,22,20,15,179,32,31,12,240,31*7A17:35:37.022> 
$GPGSV,3,3,10,02,05,062,,09,02,351,*7717:35:37.022> 
$GPRMC,143402.000,A,5548.7292,N,03755.1208,E,0.00,,220518,,,A*7117:35:37.022> 
$GPVTG,,T,,$GPGGA,143403.000,5548.7292,N,03755.1208,E,1,07,1.6,145.2,M,14.2,M,,0000*5517:35:37.618> 
$GPRMC,143403.000,A,5548.7292,N,03755.1208,E,0.00,,220518,,,A*7017:35:37.618> 
$GPVTG,,T,,M,0.00,N,0.0,K,A*1317:35:37.618> 
$GPGGA,143404.000,5548.7292,N,03755.1208,E,1,07,.00,N,0.0,K,A*1317:35:38.405> 
.00,N,0.0,K,A*1317:35:38.880> 
,,0000*5217:35:38.880> 
$GPRMC,143404.000,A,5548.7292,N,03755.1208,E,0.00,,220518,,,A*7717:35:38.880> 
$GPVTG,,T,,M,0,T,,M,0.00,N,0.0,K,A*1317:35:39.435> 
17:35:39.544> 
,,M,0.00,N,0.0,K,A*13,03755.1208,E,0.00,,220518,,,A*7617:35:39.544> 
$GPVTG,17:35:40.028> 
,,M,0.00,N,0.0,K,A*13,03755.1208,E,0.00,,220518,,,A*7617:35:40.028> 
$GPVTG,M,,0000*5317:35:40.028> 
$GPRMC,10,N,0.0,K,A*1317:35:40.422> 
0,N,0.0,K,A*1317:35:40.772> 
0,5548.7292,N,03755.1208,E,1,07,1.6,145.2,M,14.2,M,,0000*5017:35:40.772> 
$GPRMC,143406.000,A,5548.7292,N,03755.1208,E,0.00,,220518,,,A*7517:35:40.772> 
$GPVTG,,T,,M,0.0$GPGGA,143407.000,5548.7292,N,03755.1208,E,1,07,1.6,145.2,M,14.2,M,,0000*5117:35:41.260> 
$GPGSA,A,3,29,31,26,21,25,16,20,,,,,,2.5,1.6,2.0*3C17:35:41.260> 
$GPGSV,3,1,10,29,66,104,48,21,50,228,35,26,49,285,36,05,35,060,26*7217:35:42.019> 
$GPGSV,3,2,10,16,27,311,28,25,21,167,23,20,15,179,32,31,12,240,32*7917:35:42.019> 
$GPGSV,3,3,10,02,05,062,,09,02,351,*7717:35:42.019> 
$GPRMC,143407.000,A,5548.7292,N,03755.1208,E,0.00,,220518,,,A*7417:35:42.019> 
$GPVTG,,T,,M,0.00,N,0.0,K,A*1317:35:42.019> 
$GPGGA,143408.000,5548.7292,N,03755.1208,E,1,07,1.6,145.2,M,14.2,M,,0000*5E17:35:42.975> 
$GPRMC,143408.000,A,5548.7292,N,03755.1208,E,0.00,,220518,,,A*7B17:35:42.975> 
$GPVTG,,T,,M,0.00,N,0.0,K,A*1317:35:42.975> 
$GPGGA,143409.000,5548.7292,N,03755.1208,E,1,07,1.6,145.2,M,14.2,M,,0000*5F17:35:43.586> 
$GPRMC,143409.000,A,5548.7292,N,03755.1208,E,0.00,,220518,,,A*7A17:35:43.586> 
$GPVTG,,T,,M,0.00,N,0.0,K,A*1317:35:43.586> 
$GPGGA,143410.000,5548.7292,N,03755.1208,E,1,07,1.6,145.2,M,14.2,M,,0000*5717:35:44.256> 
$GPRMC,143410.000,A,5548.7292,N,03755.1208,E,0.00,,220518,,,A*7217:35:44.256> 
$GPVTG,,T,,M,0.00,N,0.0,K,A*1317:35:44.624> 
$GPGGA,143411.000,5548.7292,N,03755.1208,E,1,07,1.6,145.2,M,14.2,M,,0000*5617:35:45.169> 
$GPRMC,143411.000,A,5548.7292,N,03755.1208,E,0.00,,220518,,,A*7317:35:45.727> 
$GPVTG,,T,,M,0.00,N,0.0,K,A*1317:35:45.727> 
$GPGGA,143412.000,5548.7292,N,03GSV,3,1,10,29,66,105,48,200,A,5548.7292,N,03755.1208,E,0.00,,220518,,,A*7017:35:46.519> 
$GPVTG,,T,,M,0.00,N,0.0,K,A*1317:35:46.519> 

0,A,5548.7292,N,03$GPGGA,143413.000,5548.$GPVTG,,T,,M,0.00,N,0.0,K,A*1317:35:47.531> 
*1317:35:47.650> 
G,,T,,M,0.00,N,0.0,K,A6,145.2,M,14.2,M,,0000*5617:35:47.650> 
$GPRMC,143413.000,A,5548.7292,N,03755.1208,E,0.00,,220518,,,A*7117:35:47.650> 
*1317:35:48.027> 
G,,T,,M,0.00,N,0.0,K,A6,145.2,M,14.2,M,,0000*5617:35:48.027> 
$GPRMC,143413.000,A,5548.7292,N,$GPGGA,143414.000,5548.7292,N,03755.1208,E,1,06,2.6,145.2,M,14.2,M,,0000*5117:35:48.260> 
$GPRMC,143414.000,A,5548.7292,N,03755.1208,E,0.00,,220518,,,A*7617:35:48.260> 
$GPVTG,,T,,M,0.00,N,0.0,K,A*1317:35:48.970> 
.00,N,0.0,K,A*1317:35:49.039> 
5548.7292,N,03755.1208,E,1,06,2.6,145.2,M,14$GPGGA,143415.000,5548.7292,N,03755.1208,E,1,06,2.6,145.2,M,14.2,M,,0000*5017:35:49.195> 
$GPRMC,143415.000,A,5548.7292,N,03755.1208,E,0.00,,220518,,,A*7717:35:49.615> 
$GPVTG,,T,,M,0.00,N,0.0,K,A*1317:35:49.615> 
.00,,220518,,,A*7717:35:49.864> 
$GPVTG,,T,,M,0.00,N,0.0,K,A*1317:35:49.864> 
145.2,M,14.2,M,,0000*5017:35:49.864> 
$GPRMC,143415.000,A,554817:35:50.249> 
$GPVTG,,T,,M,0.00,N,0.0,K,A*1317:35:50.423> 
0.0,K,A*1317:35:50.563> 
,M,0.00,N,.7292,N,03755.1208,E,1,06,2.6,145.2,M,14.2,M,,0000*5317:35:50.563> 
$GPRMC,143416.000,A,5548.7292,N,03755.1208,E,0.00,,220518,,,A*74$GPGGA,143417.000,5548.7292,N,03755.1208,E,1,06,2.6,145.2,M,14.2,M,,0000*0518,,,A*7517:35:51.613> 
$GPVTG,,T,,M,0.00,N,0.0,K,A*1317:35:51.613> 
0518,,,A*7517:35:51.986> 
$GPVTG,,T,,M,0.00,N,0.0,K,A*1317:35:51.986> 
2,351,*7717:35:51.986> 
$GPRMC,143417.000,A,5548.7292,N,03755.1208,E,0.00,,220,K,A*1317:35:52.298> 
0,K,A*1317:35:52.363> 
418.000,5548.7292,N,03755.1208,E,1,06,2.6,145.2,M,14.2,M,,0000*5D17:35:52.363> 
$GPRMC,143418.000,A,5548.7292,N,03755.1208,E,0.00,,220518,,,A*7A17:35:52.363> 
$GPVTG,,T,,M,0.00,N,0.0,K,A*1317:35:53.033> 
418.000,5548.7292,N,03755.1208,E,1,06,2.6,145.2,M,14.2,M,,0000*5D17:35:53.033> 
$GPRMC,143418.000,A,5548.7292,N,03755.1208,E,0.00,,220518,,,A*7A17:35:53.033> 
$GPVTG,,T,,M,0.00,N,0.20,16,179,32,3$GPGGA,143419.000,5548.7292,N,03755.1208,E,1,06,2.6,145.2,M,14.2,M,,0000*5C17:35:53.508> 
$GPRMC,143419.000,A,5548.7292,N,03755.1208,E,0.00,,220518,,,A*7B17:35:53.508> 
$GPVTG,,T,,M,0.00,N,0.0,K,A*1317:35:53.508> 
$GPGGA,143420.000,5548.7292,N,03755.1208,E,1,07,1.6,145.2,M,14.2,M,,0000*5417:35:54.229> 
$GPRMC,143420.000,A,5548.7292,N,03755.1208,E,0.00,,220518,,,A*7117:35:54.773> 
$GPVTG,,T,,M,0.00,N,0.0,K,A*1317:35:54.773> 
$GPGGA,143421.000,5548.7292,N,03755.1208,E,1,06,1.6,145.2,M,14.2,M,,0000*5417:35:55.241> 
$GPRMC,143421.000,A,5548.7292,N,03755.1208,E,0.00,,220518,,,A*7017:35:55.241> 
$GPVTG,,T,,M,0.00,N,0.0,K,A*1317:35:55.580> 
$GPGGA,143422.000,5548.7292,N,03755.1208,E,1,07,1.6,145.2,M,14.2,M,,0000*5617:35:56.249> 
$GPGSA,A,3,29,31,26,21,25,16,20,,,,,,2.5,1.6,2.0*3C17:35:56.249> 
$GPGSV,3,1,10,29,66,105,47,21,50,228,34,26,49,285,37,05,35,060,33*7817:35:56.939> 
$GPGSV,3,2,10,16,27,311,25,25,20,167,21,20,16,179,32,31,11,240,33*7617:35:56.939> 
$GPGSV,3,3,10,02,05,062,,09,02,351,*7717:35:56.939> 
$GPRMC,143422.000,A,5548.7292,N,03755.1208,E,0.00,,220518,,,A*7317:35:56.939> 
$GPVTG,,T,,M,0.00,N,0.0,K,A*1317:35:56.939> 
$GPGGA,143423.000,5548.7292,N,03755.1208,E,1,07,1.6,145.2,M,14.2,M,,0000*5717:35:57.582> 
$GPRMC,143423.000,A,5548.7292,N,03755.1208,E,0.00,,220518,,,A*7217:35:57.582> 
$GPVTG,,T,,M,0.00,N,0.0,K,A*1317:35:57.582> 
$GPGGA,143424.000,5548.7292,N,03755.1208,E,1,07,1.6,145.2,M,14.2,M,,0000*5017:35:58.230> 
$GPRMC,143424.000,A,5548.7292,N,03755.1208,E,0.00,,220518,,,A*7517:35:58.230> 
$GPVTG,,T,,M,0.00,N,0.0,K,A*1317:35:58.620> 
$GPGGA,143425.000,5548.7292,N,03755.1208,E,1,07,1.6,145.2,M,14.2,M,,0000*5117:35:59.215> 
$GPRMC,143425.000,A,5548.7292,N,03755.1208,E,0.00,,220518,,,A*7417:35:59.654> 
$GPVTG,,T,,M,0.00,N,0.0,K,A*1317:35:59.654> 
$GPGGA,143426.000,5548.7292,N,03755.1208,E,1,07,1.6,145.2,M,14.2,M,,0000*5217:36:00.216> 
$GPRMC,143426.000,A,5548.7292,N,03755.1208,E,0.00,,220518,,,A*7717:36:00.675> 
$GPVTG,,T,,M,0.00,N,0.0,K,A*1317:36:00.675> 
$GPGGA,143427.000,5548.7292,N,03755.1208,E,1,07,1.6,145.2,M,14.2,M,,0000*53,E,0.00,,220518,,,A*7617:36:01.740> 
$GPVTG,,T,,M,0.00,N,0.0,K,A*1317:36:01.740> 
,E,0.00,,220518,,,A*7617:36:01.987> 
$GPVTG,,T,,M,0.00,N,0.0,K,A*1317:36:01.987> 
,A,5548.7292,N,03755.1208,A*1317:36:02.361> 
,A*1317:36:02.411> 
143428.000,5548.7292,N,03755.1208,E,1,08,1.0,145.2,M,14.2,M,,0000*5517:36:02.411> 
$GPRMC,143428.000,A,5548.7292,N,03755.1208,E,0.00,,220518,,,A*7917:36:02.411> 
$GPVTG,,T,,M,0.00,N,0.0,K,A*1317:36:02.981> 
143428.000,5548.7292,N,03755.1208,E,1,08,1.0,145.2,M,14.2,M,,0000*5517:36:02.981> 
$GPRMC,143428.000,A,5548.7292,N,03755.1208,E,0.00,,220518,,,A*7917:36:02.981> 
$GPVTG,,T,,M,0.00,N,0.0,K16,179,32,31,11,240,33*7517:36:02.981> 
$$GPGGA,143429.000,5548.7292,N,03755.1208,E,1,08,1.0,145.2,M,14.2,M,,0000*5417:36:03.745> 
$GPRMC,143429.000,A,5548.7292,N,03755.1208,E,0.00,,220518,,,A*7817:36:03.745> 
$GPVTG,,T,,M,0.00,N,0.0,K,A*1317:36:03.745> 
518,,,A*7017:36:04.232> 
$GPVTG,,T,,M,0.00,N,0.0,K,A*1317:36:04.411> 
T,,M,0.00,N,0.0,K,A*1317:36:04.575> 
292,N,03755.1208,E,1,08,1.0,145.2,M,14.2,M,,0000*5C17:36:04.575> 
$GPRMC,143430.000,A,5548.7292,N,03755.1208,E,0.00,,220$GPGGA,143431.000,5548.7292,N,03755.1208,E,1,0,T,,M,0.00,N,0.0,K,A*1317:36:05.537> 
17:36:05.611> 
,,M,0.00,N,0.0,K,A*13000*5D17:36:05.611> 
$GPRMC,143431.000,A,5548.7292,N,03755.1208,E,0.00,,220518,,,A*7117:36:05.611> 
$GPVTG,$GPGGA,143432.000,5548.7292,N,03755.1208,E,1,08,1.0,145.2,M,14.2,M,,0000*5E17:36:06.226> 
$GPGSA,A,3,29,31,26,21,05,25,16,20,,,,,2.0,1.0,1.7*3E17:36:06.226> 
$GP220518,,,A*7217:36:06.863> 
$GPVTG,,T,,M,0.00,N,0.0,K,A*1317:36:06.863> 
220518,,,A*7217:36:07.051> 
$GPVTG,,T,,M,0.00,N,0.0,K,A*1317:36:07.051> 
32,05,35,060,33*7C17:36:07.051> 
$GPGSV,3,2,10,16,28,311,25,25,20,167,27,20,16,179,31,31,11,240,33*7C17:36:07.051> 
$GPGSV,3,3,10,02,05,062,,09,02,351,*7717:36:07.051> 
$GPRMC,143432.000,A,5548.7292,N,03755.1208,E,0.00,,$GPGGA,143433.000,5548.7292,N,03755.1208,E,1,08,1.0,145.2,M,14.2,M,,0000*5F17:36:08.015> 
$GPRMC,143433.000,A,5548.7292,N,03755.1208,E,0.00,,220518,,,A*7317:36:08.015> 
$GPVTG,,T,,M,0.00,N,0.0,K,A*1317:36:08.015> 
$GPGGA,143434.000,5548.7292,N,03755.1208,E,1,08,1.0,145.2,M,14.2,M,,0000*5817:36:08.492> 
$GPRMC,143434.000,A,5548.7292,N,03755.1208,E,0.00,,220518,,,A*7417:36:08.492> 
$GPVTG,,T,,M,0.00,N,0.0,K,A*1317:36:08.492> 
$GPGGA,143435.000,5548.7292,N,03755.1208,E,1,08,1.0,145.2,M,14.2,M,,0000*5917:36:09.240> 
$GPRMC,143435.000,A,5548.7292,N,03755.1208,E,0.00,,220518,,,A*7517:36:09.240> 
$GPVTG,,T,,M,0.00,N,0.0,K,A*1317:36:09.720> 
$GPGGA,143436.000,5548.7292,N,03755.1208,E,1,08,1.0,145.2,M,14.2,M,,0000*5A17:36:10.144> 
$GPRMC,143436.000,A,5548.7292,N,03755.1208,E,0.00,,220518,,,A*7617:36:10.401> 
$GPVTG,,T,,M,0.00,N,0.0,K,A*1317:36:10.401> 
$GPGGA,143437.000,5548.7292,N,03755.11.0,1.7*3E17:36:11.250> 
$GPGSV,3,1,10,29,66,105,46,351,*7717:36:11.550> 
$GPRMC,143437.000,A,5548.7292,N,03755.1208,E,0.00,,220518,,,A*7717:36:11.550> 
$GPVTG,,T,,M,0.00,N,0.0,K,A*1317:36:12.025> 
$GPGGA,143438.000,5548.7292,N,03755.1208,E,1,08,1.0,145.2,M,14.2,M,,0000*5417:36:12.157> 
$GPRMC,143438.000,A,5548.7292,N,03755.1208,E,0.00,,220518,,,A*7817:36:12.510> 
$GPVTG,,T,,M,0.00,N,0.0,K,A*1317:36:12.510> 
38.000,A,5548.7292,N,03755.1208,E,0.00,,220518,,,A*7817:36:13.017> 
$GPVTG,,T,,M,0.00,N,0.0,K,A*1317:36:13.017> 
,0.00,31,31,11,240,34*7A17:36:13.017> 
$GPGSV,3,3,10,02,05,062,,09,02,$GPGGA,143439.000,5548.7292,N,03755.1208,E,1,08,1.0,145.2,M,14.2,M,,0000*5517:36:13.432> 
$GPRMC,143439.000,A,5548.7292,N,03755.1208,E,0.00,,220518,,,A*7917:36:13.432> 
$GPVTG,,T,,M,0.00,N,0.0,K,A*1317:36:13.432> 
$GPGGA,143439.000,5548.7292,N,03755.1208,E,1,08,1.0,145.2,M,14.2,M,,0000*5517:36:14.032> 
$GPRMC$GPGGA,143440.000,5548.7292,N,03755.1208,E,1,08,1.0,145.2,M,14.2,M,,0000*5B17:36:14.242> 
$GPRMC,143440.000,A,5548.7292,N,03755.1208,E,0.00,,220518,,,A*7717:36:14.242> 
$GPVTG,,T,,M,0.00,N,0.0,K,A*1317:36:14.879> 
$GPGGA,143441.000,5548.7292,N,03755.1208,E,1,08,1.0,145.2,M,14.2,M,,0000*5A17:36:15.182> 
$GPRMC,143441.000,A,5548.7292,N,03755.1208,E,0.00,,220518,,,A*7617:36:15.625> 
$GPVTG,,T,,M,0.00,N,0.0,K,A*1317:36:15.625> 
00,5548.7292,N,03755.1208,E,1,08,1.0,145.2,M,14.2,M,,0000,02,351,*7717:36:16.501> 
$GPRMC,143442.000,A,5548.7292,N,03755.1208,E,0.00,,220518,,,A*7517:36:16.501> 
$GPVTG,,T,,M,0.00,N,0.0,K,A*1317:36:16.854> 
TG,,T,,M,0.00,N,0.0,K,A*1317:36:17.036> 
00,A,5548.7292,N,03755.1208,E,0.00,,220518,,,A*7517:36:17.036> 
$GPV,46,21,50,228,36,26,49,284,32,05,35,060,30*7C17:36:17.036> 
$GPGSV,3,2,10,16,28,311,23,25,20,167,22,20,16,179,30,31,11,240,34*7917:36:17.036> 
$GPGSV,3,3,10,02,05,062,,09$GPGGA,143443.000,5548.7292,N,03755.1208,E,1,08,1.0,145.2,M,14.2,M,,0000*5817:36:17.970> 
$GPRMC,143443.000,A,5548.7292,N,03755.1208,E,0.00,,220518,,,A*7417:36:17.970> 
$GPVTG,,T,,M,0.00,N,0.0,K,A*1317:36:17.970> 
$GPGGA,143444.000,5548.7292,N,03755.1208,E,1,08,1.0,145.2,M,14.2,M,,0000*5F17:36:18.598> 
$GPRMC,143444.000,A,5548.7292,N,03755.1208,E,0.00,,220518,,,A*7317:36:18.598> 
$GPVTG,,T,,M,0.00,N,0.0,K,A*1317:36:18.598> 
$GPGGA,143444.0,A,5548.7292,N,03755.1208,E,0.00,,220518,,,A*7217:36:19.244> 
$GPVTG,,T,,M,0.00,N,0.0,K,A*1317:36:19.843> 
,0.0,K,A*1317:36:20.004> 
N,03M,,0000*5D17:36:20.154> 
$GPRMC,143446.000,A,5548.7292,N,03755.1208,E,0.00,,220518,,,A*7117:36:20.620> 
$GPVTG,,T,,M,0.00,N,0.0,K,A*1317:36:20.620> 
RMC,143446.000,A,5548.7292,N,03755.1208,E,0.00,,2205180,1.0,1.7*3E17:36:21.236> 
$GPGSV,3,1,10,29,65,105,46,2
$GPVTG,,T,,M,0.00,N,0.0,K,A*1317:36:21.671> 

$GPVTG,,T,,M,0.00,N,0.0,K,A*1317:36:22.010> 
MC,143447.000,A,5548.7292,N,03755.1208,E,0.00,,220518,,,A*7017:36:22.010> $GPGGA,143448.000,5548.7292,N,03755.1208,E,1,08,1.0,145.2,M,14.2,M,,0000*5317:36:22.297> 
$GPRMC,143448.000,A,5548.7292,N,03755.1208,E,0.00,,220518,,,A*7F17:36:22.297> 
$GPVTG,,T,,M,0.00,N,0.0,K,A*1317:36:22.297> 
$GPGGA,143448.000,5548.7292,N,03755.1208,E,1,08,1.0,145.2,M,14.2,M,,0000*5317:36:23.068> 
$GPRMC,143448.000,A,5548.7292,N,03755.1208,E,0$GPGGA,143449.000,5548.7292,N,03755.1208,E,1,08,1.0,145.2,M,14.2,M,,0000*5217:36:23.696> 
$GPRMC,143449.000,A,5548.7292,N,03755.1208,E,0.00,,220518,,,A*7E17:36:23.696> 
$GPVTG,,T,,M,0.00,N,0.0,K,A*1317:36:23.696> 
$GPGGA,143450.000,5548.7292,N,03755.1208,E,1,08,1.0,145.2,M,14.2,M,,0000*5A17:36:24.202> 
$GPRMC,143450.000,A,5548.7292,N,03755.1208,E,0.00,,220518,,,A*7617:36:24.657> 
$GPVTG,,T,,M,0.00,N,0.0,K,A*1317:36:24.657> 
N,03755.1208,E,0.00,,220518,,,A*7617:36:25.038> 
$GPVTG,,T,,M,0.00,N,0.0,K,A*1317:36:25.038> 
0000*5A17:36:25.038> 
$GPRMC,143450.000,A,5548.7292,N,03755.120$GPGGA,143451.000,5548.7292,N,03755.1208,E,1,08,1.0,145.2,M,14.2,M,,0000*5B17:36:25.551> 
$GPRMC,143451.000,A,5548.7292,N,03755.1208,E,0.00,,220518,,,A*7717:36:25.551> 
$GPVTG,,T,,M,0.00,N,0.0,K,A*1317:36:25.551> 
$GPGGA,1434,1.0,145.2,M,14.2,M,,0000*5817:36:26.219> 
$GPGSA,A,3,29,31,26,21,05,25,16,20,,,,,2.0,1.0,1.7*3E17:36:26.219> 
$GPGSV,3,1,10,29,65,105,47,21,50,228,37,26,49,284,32,05,35,059,27*7317:36:26.541> 
$GPGSV,3,2,10,16,28,311,27,25,20,167,25,20,16,179,29,31,11,240,36*7017:36:26.541> 
$GPGSV,3,3,10,02,05,062,,09,02,351,*7717:36:26.541> 
$GPRMC,143452.000,A,5548.7292,N,03755.1208,E,0.00,,220518,,,A*7417:36:26.541> 
$GPVTG,,T,,M,0.00,N,0.0,K,A*1317:36:26.541> 
0,,220518,,,A*7517:36:27.242> 
$GPVTG,,T,,M,0.00,N,0.0,K,A*1317:36:27.868> 
,0.0,K,A*1317:36:28.030> 
*7517:36:28.030> 
$GPVTG,,T,,M,0.00,N208,E,1,08,1.0,145.2,M,14.2,M,,0000*5917:36:28.030> 
$GPRMC,143453.000,A,5548.7292,N,03755.1208,E,0.0$GPGGA,143454.000,5548.7292,N,03755.1208,E,1,08,1.0,145.2,M,14.2,M,,0000*5E17:36:28.889> 
$GPRMC,143454.000,A,5548.7292,N,03755.1208,E,0.00,,220518,,,A*7217:36:28.889> 
$GPVTG,,T,,M,0.00,N,0.0,K,A*1317:36:28.889> 
$GPGGA,143455.000,5548.7292,N,03755.1208,E,1,08,1.0,145.2,M,14.2,M,,0000*5F17:36:29.575> 
$GPRMC,143455.000,A,5548.7292,N,03755.1208,E,0.00,,220518,,,A*7317:36:29.575> 
$GPVTG,,T,,M,0.00,N,0.0,K,A*1317:36:29.575> 
$GPGGA,143455.000,5548.7292,N,03755.1208,E,1,08MC,143456.000,A,5548.7292,N,03755.1208,E,0.00,,220518,,,A*7017:36:30.441> 
$GPVTG,,T,,M,0.00,N,0.0,K,A*1317:36:30.441> 
A*7017:36:30.965> 
$GPVTG,,T,,M,0.00,N,0.0,K,A*1317:36:30.965> 
,E,0.00,,220518,,,2,M,14.2,M,,0000*5C17:36:30.965> 
$GPR$GPGGA,143457.000,5548.7292,N,03755.1208,E,1,08,1.0,145.2,M,14.2,M,,0000*5D17:36:31.192> 
$GPGSA,A,3,29,31,26,21,05,25,16,20,,,,,2.0,1.0,1.7*3E17:36:31.529> 
$GPGSV,3,1,10,29,65,105,47,21,50,228,37,26,49,284,33,05,35,059,27*7217:36:31.529> 
$GPGSV,3,2,10,16,28,311,28,25,20,167,29,20,16,179,29,31,11,240,36*7317:36:31.529> 
$GPGSV,3,3,10,02,05,062,,09,02,351,*7717:36:31.529> 
$GPRMC,143457.000,A,5548.7292,N,03755.1208,E,0.00,,220518,,,A*7117:36:31.529> ,1.0,145.2,M,14.2,M,,0000*5217:36:32.206> 
$GPRMC,143458.000,A,5548.7292,N,03755.1208,E,0.00,,220518,,,A*7E17:36:32.553> 
$GPVTG,,T,,M,0.00,N,0.0,K,A*1317:36:32.553> 
,,220518,,,A*7E17:36:32.885> 
$GPVTG,,T,,M,0.00,N,0.0,K,A*1317:36:32.885> 
,5548.7292,N,03755.1208,E,0.008F17:36:33.246> 
$GPVTG,,T,,M,0.00,N,0.0,K,A*1317:36:33.419> 
,0.0,K,A*1317:36:33.620> 
,M,0.00,N.7292,N,03755.1208,E,1,08,1.0,145.2,M,14.2,M,,0000*5317:36:33.620> 
$GPRMC,143459.000,A,5548.7292,N,03755.1208,E,0.00,,220518,,,A*7,0.0,K,A*1317:36:34.011> 
,M,0.00,N.7292,N,03755.1208,E,1,08,1.0,145.2,M,14.2,M,,0000*5317:36:34.011> 
$GPGGA,143500.000,5548.7292,N,03755.1208,E,1,08,1.0,145.2,M,14.2,M,,0000*5E17:36:34.225> 
$GPRMC,143500.000,A,5548.7292,N,03755.1208,E,0.00,,220518,,,A*7217:36:34.863> 
$GPVTG,,T,,M,0.00,N,0.0,K,A*1317:36:34.863> 
$GPGGA,143501.000,5548.7292,N,03,T,,M,0.00,N,0.0,K,A*1317:36:35.522> 
,T,,M,0.00,N,0.0,K,A*1317:36:35.872> 
,M,14.2,M,,0000*5F17:36:35.872> 
$GPRMC,143501.000,A,5548.7292,N,03755.1208,E,0.00,,220518,,,A*7317:36:35.872> 
$GPVTG,,65,105,47,21,50,228,37,26,49,284,34,05,35,059,33*7117:36:36.313> 
$GPGSV,3,2,11,16,28,311,24,25,20,167,27,20,16,179,29,31,11,240,36*7017:36:36.667> 
$GPGSV,3,3,11,02,05,062,,09,02,351,,33,11,238,25*4817:36:36.667> 
$GPRMC,143502.000,A,5548.7292,N,03755.1208,E,0.00,,220518,,,A*7017:36:36.667> 
$GPVTG,,T,,M,0.00,N,0.0,K,A*1317:36:36.667> 
$GPGGA,143503.000,5548.7292,N,03755.1208,E,1,08,1.0,145.2,M,14.2,M,,0000*5D17:36:37.245> 
$GPRMC,143503.000,A,5548.7292,N,03755.1208,E,0.00,,220518,,,A*7117:36:37.661> 
$GPVTG,,T,,M,0.00,N,0.0,K,A*1317:36:37.661> 
17:36:37.995> 
$GPVTG,,T,,M,0.00,N,0.0,K,A*1317:36:37.995> 
5.1208,E,1,08,1.0,145.2,M,14.2,M,,0000*5D17:36:37.995> 
$GPRMC,143503.000,A,5548.7292,N,03755.1208,E,0.00,,220518,,,A*71208,E,0$GPGGA,143504.000,5548.7292,N,03755.1208,E,1,08,1.0,145.2,M,14.2,M,,0000*5A17:36:38.881> 
$GPRMC,143504.000,A,5548.7292,N,03755.1208,E,0.00,,220518,,,A*7617:36:38.881> 
$GPVTG,,T,,M,0.00,N,0.0,K,A*1317:36:38.881> 
$GPGGA,143505.000,5548.7292,N,03755.1208,E,1,08,1.0,145.2,M,14.2,M,,0000*5B17:36:39.596> 
$GPRMC,143505.000,A,5548.7292,N,03755.1208,E,0.00,,220518,,,A*7717:36:39.596> 
$GPVTG,,T,,M,0.00,N,0.0,K,A*1317:36:39.596> 
$GPGGA,143506.000,5548.7292,N,03755.1208,E,1,08,1.0,145.2,M,14.2,M,,0000*5817:36:40.250> 
$GPRMC,143506.000,A,5548.7292,N,03755.1208,E,0.00,,220518,,,A*7417:36:40.603> 
$GPVTG,,T,,M,0.00,N,0.0,K,A*1317:36:40.603> 
$GPGGA,143507.000,5548.7292,N,03755.1208,E,1,08,1.0,GSV,3,2,11,16,28,311,23,25,20,167,22,20,16,179,29,31,11,240,36*7217:36:41.384> 
$GPGSV,3,3,11,02,05,062,,09,02,351,,33,11,238,22*4F17:36:41.782> 
$GPRMC,143507.000,A,5548.7292,N,03755.1208,E,0.00,,220518,,,A*7517:36:41.782> 
$GPVTG,,T,,M,0.00,N,0.0,K,A*1317:36:41.782> 
A17:36:42.238> 
$GPVTG,,T,,M,0.00,N,0.0,K,A*1317:36:42.512> 
.00,N,0.0,K,A*1317:36:42.750> 
5548.7292,N,03755.1208,E,1,08,1.0,145.2,M,14.2,M,,0000*5617:36:42.750> 
$GPRMC,143508.000,A,5548.7292,N,03755.1208,E,0.00,,220518,,,A*7$GPGGA,143509.000,5548.7292,N,03755.12017:36:43.240> 
$GPVTG,,T,,M,0.00,N,0.0,K,A*1317:36:43.626> 
N,0.0,K,A*1317:36:44.028> 
,0.00,,14.2,M,,0000*5717:36:44.028> 
$GPRMC,143509.000,A,5548.7292,N,03755.1208,E,0.00,,220518,,,A*7B0,K,A*1317:36:44.511> 
0,K,A*1317:36:44.734> 
510.000,5548.7292,N,03755.1208,E,1,08,1.0,145.2,M,14.2,M,,0000*5F17:36:44.734> 
$GPRMC,143510.000,A,5548.7292,N,03755.1208,E,0.00,,220518,,,A*7317:36:44.734> 
$GPVTG,,T,,M,0.00,N,0.$GPGGA,143511.000,5548.7292,N,03755.1208,E,1,08,1.0,145.2,M,14.2,M,,0000*5E17:36:45.151> 
$GPRMC,143511.000,A,5548.7292,N,03755.1208,E,0.00,,220518,,,A*7217:36:45.723> 
$GPVTG,,T,,M,0.00,N,0.0,K,A*1317:36:45.723> 
RMC,143511.000,A,5548.7292,N,03755.1208,E,0.00,,220518,,,A*7217:36:46.030> 
$GPVTG,,T,,M,0.00,N,0.0,K,A*1317:36:46.030> 
A,5548.7292,N,03755.1208,E,0.00,,220518,,,A*7317:36:46.030> 
$GPVTG,,T,E,0.00,,220518,,,A*7117:36:46.579> 
$GPVTG,,T,,M,0.00,N,0.0,K,A*1317:36:46.579> 
E,0.00,,220518,,,A*7117:36:46.807> 
$GPVTG,,T,,M,0.00,N,0.0,K,A*1317:36:46.807> 
.2,M,14.2,M,,0000*5D17:36:46.807> 
$GPGSA,A,3,29,31,26,21,05,25,16,20,,,,,2.0,1.0,1.7*3E17:36:46.807> 
$GPGSV,3,1,10,29,65,105,47,21,50,228,36,26,49,284,33,05,35,059,32*7717:36:46.807> 
$GPGSV,3,2,10,16,28,311,24,25,20,167,21,20,16,179,29,31,11,240,36*7717:36:46.807> 
$GPGSV,3,3,10,02,05,062,,09,02,351,*7717:36:46.807> 
$GPRMC,143512.000,A,5548.7292,N,03755.1208,$GPGGA,143513.000,5548.7292,N,03755.1208,E,1,07,1.1,145.2,M,14.2,M,,0000*5217:36:47.664> 
$GPRMC,143513.000,A,5548.7292,N,03755.1208,E,0.00,,220518,,,A*7017:36:47.664> 
$GPVTG,,T,,M,0.00,N,0.0,K,A*1317:36:47.664> 
$GPGGA,143514.000,5548.729.00,,220518,,,A*7717:36:48.237> 
$GPVTG,,T,,M,0.00,N,0.0,K,A*1317:36:48.744> 
.00,N,0.0,K,A*1317:36:48.985> 
17:36:48.985> 
$GPVTG,,T,,M,014.2,M,,0000*5517:36:48.985> 
$GPRMC,143514.000,A,5548.7292,N,03755.1208,E,0$GPGGA,143515.000,5548.7292,N,03755.1208,E,1,07,1.1,145.2,M,14.2,M,,0000*5417:36:49.223> 
$GPRMC,143515.000,A,5548.7292,N,03755.1208,E,0.00,,220518,,,A*7617:36:49.688> 
$GPVTG,,T,,M,0.00,N,0.0,K,A*1317:36:49.688> 
$GPGGA,143516.000,5548.7292,N,03755.1208,E,1,07,1.1,145.2,M,14.2,M,,0000*5717:36:50.264> 
$GPRMC,143516.000,A,5548.7292,N,03755.1208,E,0.00,,220518,,,A*7517:36:50.264> 
$GPVTG,,T,,M,0.00,N,0.0,K,A*1317:36:50.888> 
$GPGGA,143517.000,5548.7292,N,03755.12011,240,35*7217:36:51.436> 
$GPGSV,3,3,10,02,04,062,,09,01,351,*7517:36:51.436> 
$GPRMC,143517.000,A,5548.7292,N,03755.1208,E,0.00,,220518,,,A*7417:36:51.878> 
$GPVTG,,T,,M,0.00,N,0.0,K,A*1317:36:51.878> 
1,01,0GGA,143518.000,5548.7292,N,03755.1208,E,7,1.1,145.2,M,14.2,M,,0000*5917:36:52.262> 
$GPRMC,143518.000,A,5548.7292,N,03755.1208,E,0.00,,220518,,,A*7B17:36:52.262> 
$GPVTG,,T,,M,0.00,N,0.0,K,A*1317:36:52.654> 
,0.00,N,0.0,K,A*1317:36:53.019> 
,,0000*5917:36:53.019> 
$GPRMC,143518.000,A,5548.7292,N,03755.1208,E,0.00,,220518,,,A*7B17:36:53.019> 
$GPVTG,,T,,M5,105,47,21,50,228,36,26,50,284,33,05,35,059,28*7417:36:53.019> 
$GPGSV,3,2,10,16,28,311,25,25,20,167,15,20,16,179,29,31,$GPGGA,143519.000,5548.7292,N,03755.1208,E,1,07,1.1,145.2,M,14.2,M,,0000*5817:36:53.786> 
$GPRMC,143519.000,A,5548.7292,N,03755.1208,E,0.00,,220518,,,A*7A17:36:53.786> 
$GPVTG,,T,,M,0.00,N,0.0,K,A*1317:36:53.786> 
$GPGGA,143520.000,5548.7292,N,03755.1208,E,1,07,1.1,145.2,M,14.2,M,,0000*5217:36:54.226> 
$GPRMC,143520.000,A,5548.7292,N,03755.1208,E,0.00,,220518,,,A*7017:36:54.226> 
$GPVTG,,T,,M,0.00,N,0.0,K,A*1317:36:54.645> 
$GPGGA,143521.000,5548.7292,N,03755.1208,E,1,07,1.1,145.2,M,14.2,M,,0000*5317:36:55.248> 
$GPRMC,143521.000,A,5548.7292,N,03755.1208,E,0.00,,220518,,,A*7117:36:55.248> 
$GPVTG,,T,,M,0.00,N,0.0,K,A*1317:36:55.644> 
$GPGGA,143522.000,5548.7292,N,21,50,228,36,26,50,,A,5548.7292,N,03755.1208,E,0.00,,220518,,,A*7217:36:56.525> 
$GPVTG,,T,,M,0.00,N,0.0,K,A*1317:36:56.525> 
,A,5548.7292,N,03755.1208,E,0.00,,220518,,,A*7217:36:57.033> 
$GPVTG,,T,,M,0.00,N,0.0,K,A*1317:36:57.033> 
1,240,35*7417:36:57.033> 
$GPGSV,3,3,10,02,04,062,,09,01,351,*7517:36:57.033> 
$GPRMC,143522.000$GPGGA,143523.000,5548.7292,N,03755.1208,E,1,08,1.0,145.2,M,14.2,M,,0000*5F17:36:57.983> 
$GPRMC,143523.000,A,5548.7292,N,03755.1208,E,0.00,,220518,,,A*7317:36:57.983> 
$GPVTG,,T,,M,0.00,N,0.0,K,A*1317:36:57.983> 
$GPGGA,143524.000,5548.7292,N,03755.1208,E,1,08,1.0,145.2,M,14.2,M,,0000*5817:36:58.659> 
$GPRMC,143524.000,A,5548.7292,N,03755.1208,E,0.00,,220518,,,A*7417:36:58.659> 
$GPVTG,,T,,M,0.00,N,0.0,K,A*1317:36:58.659> 
$GPGGA,143524.000,5548.7292,N,03755.1208,E,1,08,1.0,145.2,M,14.2,M,,0000*5817:36:59.019> 
$GPRMC,143524.000,A,5548.7292,N,03755.1208,E,0.00,,2$GPGGA,143525.000,5548.7292,N,03755.1208,E,1,08,1.0,145.2,M,14.2,M,,0000*5917:36:59.411> 
$GPRMC,143525.000,A,5548.7292,N,03755.1208,E,0.00,,220518,,,A*7517:36:59.411> 
$GPVTG,,T,,M,0.00,N,0.0,K,A*1317:36:59.411> 
$GPGGA,143526.000,5548.7292,N,03755.1208,E,1,08,1.0,145.2,M,14.2,M,,0000*5A17:37:00.293> 
$GPRMC,143526.000,A,5548.7292,N,03755.1208,E,0.00,,220518,,,A*7617:37:00.293> 
$GPVTG,,T,,M,0.00,N,0.0,K,A*1317:37:01.018> 
$GPGGA,143527.000,5548.7292,N,03755.1208,E,1,08,1.0311,28,25,20,167,21,20,16,179,29,31,11,240,34*7917:37:01.414> 
$GPGSV,3,3,10,02,04,062,,09,01,351,*7517:37:01.414> 
$GPRMC,143527.000,A,5548.7292,N,03755.1208,E,0.00,,220518,,,A*7717:37:01.870> 
$GPVTG,,T,,M,0.00,N,0.0,K,A*1317:37:01.870> 
$GPGGA,143528.000,5548.7292,N,03755.1208,E,1,08,1.0,145.2,M,14.2,M,,0000*5417:37:02.243> 
$GPRMC,143528.000,A,5548.7292,N,03755.1208,E,0.00,,220518,,,A*7817:37:02.622> 
$GPVTG,,T,,M,0.00,N,0.0,K,A*1317:37:02.622> 
7817:37:03.019> 
$GPVTG,,T,,M,0.00,N,0.0,K,A*1317:37:03.019> 
1208,E,1,08,1,A,5548.7292,N,03755.1208,E,0.00,,220518,,,A*7917:37:03.243> 
$GPVTG,,T,,M,0.00,N,0.0,K,A*1317:37:03.961> 
.00,N,0.0,K,A*1317:37:04.263> 
.00,N,0.0,K,A*1317:37:04.540> 
2,N,03755.1208,E,0.00,,220518,,,A*7117:37:04.540> 
$GPVTG,,T,,M,0.00,N,0.0,K,A*1317:37:05.025> 
2,N,03755.1208,E,0.00,,220518,,,A*7117:37:05.025> 
$GPVTG,,T,,M,03$GPGGA,143531.000,5548.7292,N,03755.1208,E,1,08,1.0,145.2,M,14.2,M,,0000*5C17:37:05.232> 
$GPRMC,143531.000,A,5548.7292,N,03755.1208,E,0.00,,220518,,,A*7017:37:05.733> 
$GPVTG,,T,,M,0.00,N,0.0,K,A*1317:37:05.733> 
A*7017:37:06.037> 
$GPVTG,,T,$GPGGA,143532.000,5548.7292,N,03755.1208,E,1,08,1.0,145.2,M,14.2,M,,0000*5F17:37:06.180> 
$GPGSA,A,3,29,31,26,21,05,25,16,20,,,,,2.0,1.0,1.7*3E17:37:06.739> 
$GPGSV,3,1,10,29,65,105,47,21,50,228,35,26,50,284,32,05,35,059,28*7617:37:06.739> 
$GPGSV,3,2,10,16,28,311,28,25,20,167,20,20,16,179,29,31,11,240,34*7817:37:06.739> 
$GPGSV,3,3,10,02,04,062,,09,01,351,*7517:37:06.739> 
$GPRMC,143532.000,A,5548.7292,N,03755.1208,E,0.00,,220518,,,A*7317:37:06.739> 
$GPVTG,,T,,M,0.00,N,0.0,K,A*1317:37:06.739> 
$GPGGA,143533.000,5548.7292,N,03755.1208,E,1,08,1.0,145.2,M,14.2,M,,0000*5E17:37:07.590> 
$GPRMC,143533.000,A,5548.7292,N,03755.1208,E,0.00,,220518,,,A*7217:37:07.590> 
$GPVTG,,T,,M,0.00,N,0.0,K,A*1317:37:07.590> 
$GPGGA,143533.000,5548.7292,N,03755.1208,E,1,08,1.0,145.2,M,14.2,M,,0000*5E17:37:08.020> 
$GPRMC,143533.000$GPGGA,143534.000,5548.7292,N,03755.1208,E,1,08,1.0,145.2,M,14.2,M,,0000*5917:37:08.609> 
$GPRMC,143534.000,A,5548.7292,N,03755.1208,E,0.00,,220518,,,A*7517:37:08.609> 
$GPVTG,,T,,M,0.00,N,0.0,K,A*1317:37:08.609> 
$GPGGA,143534.000,5548.7292,N,03755.1208,E,1,08,1.0,145.2,M,14.2,M,,0000*5917:37:09.047> 
$GPRMC,143534.000,A,5548.7292,N,03755.1208,E,$GPGGA,143535.000,5548.7292,N,03755.1208,E,1,08,1.0,145.2,M,14.2,M,,0000*5817:37:09.501> 
$GPRMC,143535.000,A,5548.7292,N,03755.1208,E,0.00,,220518,,,A*7417:37:09.501> 
$GPVTG,,T,,M,0.00,N,0.0,K,A*1317:37:09.501> 
$GPGGA,143536.000,5548.7292,N,03755.1208,E,1,08,1.0,145.2,M,14.2,M,,0000*5B17:37:10.241> 
$GPRMC,143536.000,A,5548.7292,N,03755.1208,E,0.00,,220518,,,A*7717:37:10.241> 
$GPVTG,,T,,M,0.00,N,0.0,K,A*1317:37:11.017> 
0,,,,,2.0,1.0,1.7*3E17:37:11.245> 
$GPGSV,3,1,10,29,65,105,47,21,50,

A,5548.7292,N,03755.1208,E,0.00,,220518,,,A*7617:37:11.723> 
$GPVTG,,T,,M,0.00,N,0.0,K,A*1317:37:11.723> 
A,5548.7292,N,03755.1208,E,0.00,,220518,,,A*7617:37:12.022> 
$GPVTG,,T,,M,0.00,N,0.0,K,A*1317:37:12.022> 16,179,29,31,11,240,33*7A17:37:12.022> 
$GPGSV,3,3,10,02,04,062,,09,01,351,*7517:37:12.022> 
$GPRMC,143537.000$GPGGA,143538.000,5548.7292,N,03755.1208,E,1,08,1.0,145.2,M,14.2,M,,0000*5517:37:13.015> 
$GPRMC,143538.000,A,5548.7292,N,03755.1208,E,0.00,,220518,,,A*7917:37:13.015> 
$GPVTG,,T,,M,0.00,N,0.0,K,A*1317:37:13.015> 
$GPGGA,143539.000,5548.7292,N,03755.1208,E,1,08,1.0,145.2,M,14.2,M,,0000*5417:37:13.592> 
$GPRMC,143539.000,A,5548.7292,N,03755.1208,E,0.00,,220518,,,A*7817:37:13.592> 
$GPVTG,,T,,M,0.00,N,0.0,K,A*1317:37:13.592> 
$GPGGA,143539.000,5548.7292,N,03755.1208,E,1,08,1.0,145.2,M,14.2,M,,005.1208,E,0.00,,220518,,,A*7617:37:14.243> 
$GPVTG,,T,,M,0.00,N,0.0,K,A*1317:37:14.562> 
N,0.0,K,A*1317:37:14.931> 
,220518,,,A*7617:37:14.931> 
$GPVTG,,T,,M,0.00,1.0,145.2,M,14.2,M,,0000*5A17:37:14.931> 
$GPRMC,143540.000,A,5548.7292,N,0375$GPGGA,143541.000,5548.7292,N,03755.1208,E,1,08,1.0,145.2,M,14.2,M,,0000*5B17:37:15.234> 
$GPRMC,143541.000,A,5548.7292,N,03755.1208,E,0.00,,220518,,,A*7717:37:15.234> 
$GPVTG,,T,,M,0.00,N,0.0,K,A*1317:37:15.813> 
M,0.00,N,0.0,K,A*1317:37:15.997> 
8.7292,N,03755.1208$GPGGA,143542.000,5548.7292,N,03755.1208,E,1,08,1.0,145.2,M,14.2,M,,0000*5817:37:16.227> 
$GPGSA,A,3,29,31,26,21,05,25,16,20,,,,,2,A*1317:37:16.904> 
,A*1317:37:17.019> 
1.7*3E17:37:17.019> 
$GPGSV,3,1,10,29,65,105,47,21,50,228,36,26,50,284,33,05,35,059,29*7517:37:17.019> 
$GPGSV,3,2,10,16,28,311,27,25,20,167,29,20,16,179,29,31,11,240,31*7B17:37:17.019> 
$GPGSV,3,3,10,02,04,062,,09,01,351,*7517:37:17.019> 
$GPRMC,143542.000,A,5548.7292,N,03755.1208,E,0.00,,220518,,,A*7417:37:17.019> 
$GPVTG,,T,,M,0.00,N,0.0,K$GPGGA,143543.000,5548.7292,N,03755.1208,E,1,08,1.0,145.2,M,14.2,M,,0000*5917:37:18.001> 
$GPRMC,143543.000,A,5548.7292,N,03755.1208,E,0.00,,220518,,,A*7517:37:18.001> 
$GPVTG,,T,,M,0.00,N,0.0,K,A*1317:37:18.001> 
$GPGGA,143544.000,5548.7292,N,03755.1208,E,1,08,1.0,145.2,M,14.2,M,,0000*5E17:37:18.781> 
$GPRMC,143544.000,A,5548.7292,N,03755.1208,E,0.00,,220518,,,A*7217:37:18.781> 
$GPVTG,,T,,M,0.00,N,0.0,K,A*1317:37:18.781> 
$GPGGA,143545.000,5548.7292,N,03755.1208,E,1,08,1.0,145.2,M,14.2,M,,0000*5F17:37:19.219> 
$GPRMC,143545.000,A,5548.7292,N,03755.1208,E,0.00,,220518,,,A*7317:37:19.881> 
$GPVTG,,T,,M,0.00,N,0.0,K,A*1317:37:19.881> 
$GPGGA,143546.000,5548.7292,N,03755.1208,E,1,08,1.0,145.2,M,14.2,M,,0000*5C17:37:20.182> 
$GPRMC,143546.000,A,5548.7292,N,03755.1208,E,0.00,,220518,,,A*7017:37:20.552> 
$GPVTG,,T,,M,0.00,N,0.0,K,A*1317:37:20.552> 
$GPGGA,143547.000,5548.7292,N,03755.1208,E,1,08,1.0,145.2,M,14.2,M,,0000*5D17:37:21.242> 
$GPGSA,A,3,29,31,26,21,05,25,16,20,,,,,2.0,1.0,1.7*3E17:37:21.242> 
$GPGSV,3,1,10,29,65,105,47,21,51,228,35,26,50,284,34,05,34,059,30*7917:37:21.560> 
$GPGSV,3,2,10,16,28,311,27,25,20,167,26,20,16,179,29,31,11,240,30*7517:37:21.560> 
$GPGSV,3,3,10,02,04,062,,09,01,351,*7517:37:21.560> 
$GPRMC,143547.000,A,5548.7292,N,03755.1208,E,0.00,,220518,,,A*7117:37:21.560> 
$GPVTG,,T,,M,0.00,N,0.0,K,A*1317:37:21.560> 
08,E,1,08,1.0,145.2,M,14.2,M,,0000*5217:37:22.169> 
$GPRMC,143548.000,A,5548.7292,N,03755.1208,E,0.00,,220518,,,A*7E17:37:22.616> 
$GPVTG,,T,,M,0.00,N,0.0,K,A*1317:37:22.616> 
A,5548.7292,N,03755.1208,E,0.00,,22051220518,,,A*7F17:37:23.251> 
$GPVTG,,T,,M,0.00,N,0.0,K,A*1317:37:23.876> 
*1317:37:24.018> 
8,,,A*7F17:37:24.018> 
$GPVTG,,T,,M,0.00,N,0.0,K,A549.000,A,5548.7292,N,03755.1208,E,0.00,,17:37:24.236> 
$GPVTG,,T,,M,0.00,N,0.0,K,A*1317:37:24.319> 
00,N,0.0,K,A*1317:37:24.742> 
,5548.7292,N,03755.1208,E,1,08,1.0,145.2,M,14.2,M,,0000*5B17:37:24.742> 
$GPRMC,143550.000,A,5548.7292,N,03755.1208,E,0.00,,220518,,,A*77$GPGGA,143551.000,5548.7292,,220518,,,A*7617:37:25.244> 
$GPVTG,,T,,M,0.00,N,0.0,K,A*1317:37:25.759> 
0.0,K,A*1317:37:25.869> 
*7617:37:25.869> 
$GP0.0,K,A*1317:37:26.041> 
*7617:37:26.041> 
$GPVTG,,T,,M,0.00,N,,M,,0000*5717:37:26.041> 
$GPRMC,143551.000,A,5548.7292$GPGGA,143552.000,5548.7292,N,03755.1208,E,1,07,1.2,145.2,M,14.2,M,,0000*5417:37:26.253> 
$GPGSA,A,3,29,31,26,21,05,25,20,,,,,,2.2,1.2,1.9*3717:37:26.253> 
$GPGSV,3,1,10,29,65,105,47,21,51,228,36,26,50,284,34,05,34,059,30*7A17:37:26.879> 
$GPGSV,3,2,10,16,28,311,20,25,20,167,29,20,16,179,29,31,11,240,30*7D17:37:26.879> 
$GPGSV,3,3,10,02,04,062,,09,01,351,*7517:37:26.879> 
$GPRMC,143552.000,A,5548.7292,N,03755.1208,E,0.00,,220518,,,A*7517:37:26.879> 
$GPVTG,,T,,M,0.00,N,0.0,K,A*1317:37:26.879> 
$GPGGA,143553.000,5548.7292,N,03755.1208,E,1,08,1.0,145.2,M,14.2,M,,0000*5817:37:27.532> 
$GPRMC,143553.000,A,5548.7292,N,03755.1208,E,0.00,,220518,,,A*7417:37:27.532> 
$GPVTG,,T,,M,0.00,N,0.0,K,A*1317:37:27.532> 
$GPGGA,143553.000,5548.7292,N,03755.1208,E,1,PVTG,,T,,M,0.00,N,0.0,K,A*1317:37:28.585> 
1317:37:28.610> 
,,T,,M,0.00,N,0.0,K,A*2,N,03755.1208,E,1,08,1.0,145.2,M,14.2,M,,0000*5F17:37:28.610> 
$GPRMC,143554.000,A,5548.7292,N,03755.1208,E,0.00,,220518,,,A*7317:37:28.610> 
$G755.1208,E,0.00,,220518,,,A*7217:37:29.239> 
$GPVTG,,T,,M,0.00,N,0.0,K,A*1317:37:29.616> 
00,N,0.0,K,A*1317:37:29.993> 5548.7292,N,03755.1208,E,0.00,,220518,,,A*7117:37:30.231> 
$GPVTG,,T,,M,0.00,N,0.0,K,A*1317:37:30.967> 
$GPGGA,143557.000,5548.7292,N,03755.1208,E,1,08,1.0,145.2,M,14.2,M,,0000*5C17:37:31.161> 
$GPGSA,A,3,17:37:31.856> 
$GPVTG,,T,,M,0.00,N,0.0,K,A*1317:37:31.856> 
17:37:32.034> 
$GPVTG,,T,,M,0.00,N,0.0,K,A*1317:37:32.034> 
C,143557.000,A,5548.7292,N,03755.1208,E,0.00,,220518,,,A*70$GPGGA,143558.000,5548.7292,N,03755.1208,E,1,08,1.0,145.2,M,14.2,M,,0000*5317:37:32.568> 
$GPRMC,143558.000,A,5548.7292,N,03755.1208,E,0.00,,220518,,,A*7F17:37:32.568> 
$GPVTG,,T,,M,0.00,N,0.0,K,A*1317:37:32.568> 
$GPGGA,143558.000,5548.7292,N,03755.1208,E,1,08,1.0,145.2,M,14.2,M,,0000*5317:37:33.042> 
$GPRMC,143558.000,A,5548.7292,N,03755.1208,E,0.00,,220518,,,A*7F17:37:33.042> 
$GPVTG,,T,,M,0.00,N,0.0,K,A*1317:37:33.042> 
0,30*7417:37:33.042> 
$GPGSV,3,3,$GPGGA,143559.000,5548.7292,N,03755.1208,E,1,08,1.0,145.2,M,14.2,M,,0000*5217:37:33.654> 
$GPRMC,143559.000,A,5548.7292,N,03755.1208,E,0.00,,220518,,,A*7E17:37:33.654> 
$GPVTG,,T,,M,0.00,N,0.0,K,A*1317:37:33.654> 
0,5548.7292,N,03755.1208,E,1,08,1.0,145.2,M,14.2,M,,0000*5D17:37:34.201> 
$GPRMC,143600.000,A,5548.7292,N,03755.1208,E,0.00,,220518,,,A*7117:37:34.641> 
$GPVTG,,T,,M,0.00,N,0.0,K,A*1317:37:34.641> 
00,,220518,,,A*700,,220518,,,A*7117:37:35.087> 
$GPVTG,,T,,M,0.00,N,0.0,K,A*1317:37:35.087> 
3600.000,A,5548.7292,N,03755.1208,E,0.9.00$GPGGA,143601.000,5548.7292,N,03755.1208,E,1,08,1.0,145.2,M,14.2,M,,0000*5C17:37:35.329> 
$GPRMC,143601.000,A,5548.7292,N,03755.1208,E,0.00,,220518,,,A*7017:37:35.329> 
$GPVTG,,T,,M,0.00,N,0.0,K,A*1317:37:35.329> 
$GPG$GPGGA,143602.05,48,21,51,228,37,2602.000,A,5548.7292,N,03755.1208,E,0.00,,220518,,,A*7317:37:36.523> 
$GPVTG,,T,,M,0.00,N,0.0,K,A*1317:37:36.523> 

02.000,A,5548.7292,N,03755.1208,E,0.00,,220518,,,A*7317:37:37.003> 
$GPVTG,,T,,M,0.00,N,0.0,K,A*1317:37:37.003> ,240,30*7D17:37:37.003> 
$GPGSV,3,3,10,02,04,062,,09,01,351,*7517:37:37.003> 
$GPRMC,143$GPGGA,143603.000,5548.7292,N,03755.1208,E,1,08,1.0,145.2,M,14.2,M,,0000*5E17:37:37.646> 
$GPRMC,143603.000,A,5548.7292,N,03755.1208,E,0.00,,220518,,,A*7217:37:37.646> 
$GPVTG,,T,,M,0.00,N,0.0,K,A*1317:37:37.646> 
$GPGGA,143603.000,5548.7292,N,03755.1208,E,1,08,1.0,145.2,M,14.2,M,,0000*5E17:37:38.044> 
$GPRMC,143603.000,A,5548.7292,N,03755.1208,E,0.00,,220518,,,A*$GPGGA,143604.000,5548.7292,N,03755.1208,E,1,08,1.0,145.2,M,14.2,M,,0000*5917:37:38.670> 
$GPRMC,143604.000,A,5548.7292,N,03755.1208,E,0.00,,220518,,,A*7517:37:38.670> 
$GPVTG,,T,,M,0.00,N,0.0,K,A*1317:37:38.670> 
00*5817:37:39.256> 
$GPRMC,143605.000,A,5548.7292,N,03755.1208,E,0.00,,220518,,,A*7417:37:39.256> 
$GPVTG,,T,,M,0.00,N,0.0,K,A*1317:37:39.886> 
$GPGGA,143606.000,5548.7292,N,03755.1208,E,1,08,1.0,145.2,M,14.2,M,,0000*5B17:37:40.262> 
$GPRMC,143606.000,A,5548.7292,N,03755.1208,E,0.00,,220518,,,A*7717:37:40.262> 
$GPVTG,,T,,M,0.00,N,0.0,K,A*1317:37:40.881> 
K,A*1317:37:41.024> 
E,1,08,1.0,145.2,M,14.2,M,,0000*5B17:37:41.024> 
$GPRMC,143606.000,A,5548.7,,2.0,1.0,1.7*3E17:37:41.238> 
$GPGSV,3,1,10,29,65,105,48,220518,,,A*7617:37:41.652> 
$GPVTG,,T,,M,0.00,N,0.0,K,A*1317:37:41.652> 
,220518,,,A*7617:37:42.022> 
$GPVTG,,T,,M,0.00,N,0.0,K,A*1317:37:42.022> 
,A,5548.7292,N,03755.1208,E,0.00,$GPGGA,143608.000,5548.7292,N,03755.1208,E,1,08,1.0,145.2,M,14.2,M,,0000*5517:37:42.238> 
$GPRMC,143608.000,A,5548.7292,N,03755.1208,E,0.00,,220518,,,A*7917:37:42.238> 
$GPVTG,,T,,M,0.00,N,0.0,K,A*1317:37:42.558> 
PVTG,,T,,M,0.00,N,0.0,K,A*1317:37:42.994> 
03755.1208,E,1,08,1.0,145.2,M,14.2,M,,0000*5517:37:42.994> 
$GPRMC,143608.000,A,5548.7292,N,03755.1208,E,0$GPGGA,143609.000,5548.7292,N,03755.1208,E,1,08,1.0,145.2,M,14.2,M,,0000*5417:37:43.518> 
$GPRMC,143609.000,A,5548.7292,N,03755.1208,E,0.00,,220518,,,A*7817:37:43.518> 
$GPVTG,,T,,M,0.00,N,0.0,K,A*1317:37:43.518> 
$GPGGA,143609.000,5548.7292,N,03755.1208,E,1,08,1.0,145.2,M,14.2,M,,0000*5417:37:44.006> 
$GPRMC,143609.000,A,5548.7292,N,03755$GPGGA,143610.000,5548.7292,N,03755.1208,E,1,08,1.0,145.2,M,14.2,M,,0000*5C17:37:44.318> 
$GPRMC,143610.000,A,5548.7292,N,03755.1208,E,0.00,,220518,,,A*7017:37:44.318> 
$GPVTG,,T,,M,0.00,N,0.0,K,A*1317:37:44.318> 
$GPGGA,143610.000,5548.7292,N,03755.1208,E,1,08,1.0,145.2,M,14.2,M,,0000*5C17:37:45.028> 
$GPRMC,143610.000,00,N,0.0,K,A*1317:37:45.397> 
00,N,0.0,K,A*1317:37:45.738> 
,5548.7292,N,03755.1208,E,1,08,1.0,145.2,M,14.2,M,,0000*5D17:37:45.738> 
$GPRMC,143611.000,A,5548.7292,N,03755.1208,E,0.00,,220518,,,A*7117:37:45.738> 
$GPVTG,,T,,M,0.6,21,05,25,16,20,,,,,2.0,1.0,1.7*3E17:37:46.229> 
$GPGSV,3,1,10,29,65,220518,,,A*7217:37:46.956> 
$GPVTG,,T,,M,0.00,N,0.0,K,A*1317:37:46.956> 
8,,,A*7317:37:47.251> 
$GPVTG,,T,,M,0.00,N,0.0,K,A*1317:37:47.735> 
1317:37:47.873> 
A*7317:37:47.873> 
$GPVTG,,T,,M,0.00,N,0.0,K,A*08,E,1,08,1.0,145.2,M,14.2,M,,0000*5F17:37:47.873> 
$GPRMC,143613.000,A,5548.7292,N,03755.1208,E,0.00,,22051,M,0.0,M,0.0,143614.000,5548.7292,N,03755.1208,E,1,08,1.0,145.2,M,14.2,M,,0000*5817:37:48.264> 
$GPRMC,143614.000,A,5548.7292,N,03755.1208,E,0.00,,220518,,,A*7417:37:48.264> 
$GPVTG,,T,0,N,0.0,K,A*1317:37:49.010> 
43615.000,A,5548.7292,N,03755.1208,E,0.00,,220518,,,A*7517:37:49.254> 
$GPVTG,,T,,M,0.00,N,0.0,K,A*1317:37:49.562> 
TG,,T,,M,0.00,N,0.0,K,A*1317:37:49.879> 
5.1208,E,0.00,,220518,,,A*7517:37:49.879> 
$GPV.2,M,,0000*5917:37:49.879> 
$GPRMC,1$GPGGA,143616.000,5548.7292,N,03755.1208,E,1,071,07GA,143616.000,5548.7292,N,03755.1208,E,220518,,,A*7517:37:50.610> 
$GPV.2,M,,0000*5917:37:50.610> 
$GPRMC,1,07GA,143616.000,5548.7292,N,03755.1208,E,220518,,,A*7517:37:50.984> 
$GPV.2,M,,0000*5917:37:50.984> 
$GPRMC,143614.000,A,5548.7292,N,03755.1208,E,0.00,PVTG,,T,,M,0.00,N,0.0,K,A*1317:37:51.772> 
PVTG,,T,,M,0.00,N,0.0,K,A*1317:37:52.040> 
,5548.7292,N,03755.1208,E,0.00,,220518,,,A*7717:37:52.040> 
$G$GPGGA,143618.000,5548.7292,N,03755.1208,E,1,07,1.2,145.2,M,14.2,M,,0000*5917:37:52.248> 
$GPRMC,143618.000,A,5548.7292,N,03755.1208,E,0.00,,220518,,,A*7817:37:52.248> 
$GPVTG,,T,,M,0.00,N,0.0,K,A*1317:37:53.014> 
5.1208,E,0.00,,220518,,,A*7917:37:53.222> 
$GPVTG,,T,,M,0.00,N,0.0,K,A*1317:37:53.688> 
,,T,,M,0.00,N,0.0,K,A*1317:37:54.004> 
7917:37:54.004> 
$GPVTG1208,E,1,07,1.2,145.2,M,14.2,M,,0000*5817:37:54.004> 
$GPRMC,143619.000,A,5548.7292,N,0375$GPGGA,143620.000,5548.7292,N,03755.1208,E,1,08,1.0,145.2,M,14.2,M,,0000*5F17:37:54.435> 
$GPRMC,143620.000,A,5548.7292,N,03755.1208,E,0.00,,220518,,,A*7317:37:54.435> 
$GPVTG,,T,,M,0.00,N,0.0,K,A*1317:37:54.435> 
$GPGGA,143620.000,5548.7292,N,03755.1208,E,1,08,1.0,145.2,M,14.2,M,,0000*5F17:37:55.039> 
$GPRMC,1M,0.00,N,0.0,K,A*1317:37:55.276> 
M,0.00,N,0.0,K,A*1317:37:55.451> 
8.7292,N,03755.1208,E,1,08,1.0,145.2,M,14.2,M,,0000*5E17:37:55.451> 
$GPRMC,143621.000,A,5548.7292,N,03755.1208,E,0.00,,220518,,,A*7217:37:55.451> 
$GPVTG,,T,,M,0.00,N,0.0,K,A*1317:37:56.032> 
8.7292,N,03755.1208,E,1,08,1.0,145.2,M,14.2,M,,0000*5E17:37:56.032> 
$GPRMC,143621.000,A,5548.7292,N,03755.1208,E,0.00,,220518,,,A*7217:37:56.032> 
$GPVTG,,T,,M,0.00,N,0.0,K,A*1317:37:56.032> 
,283,35,05,34,059,30*7D17:37:56.032> 
$GPGSV,3,2,10,T,,M,0.00,N,0.0,K,A*1317:37:56.580> 
T,,M,0.00,N,0.0,K,A*1317:37:56.776> 
292,N,03755.1208,E,1,08,1.0,145.2,M,14.2,M,,0000*5D17:37:56.776> 
$GPGSA,A,3,29,31,26,21,05,25,16,20,,,,,2.0,1.0,1.7*3E17:37:56.776> 
$GPGSV,3,1,10,29,65,105,47,21,51,228,37,26,50,283,35,05,34,059,30*7D17:37:56.776> 
$GPGSV,3,2,10,16,28,311,25,25,20,167,28,20,16,179,29,31,11,240,33*7A17:37:56.776> 
$GPGSV,3,3,10,02,04,063,,09,01,350,*7517:37:56.776> 
$GPRMC,143622.000,A,5548.7292,N,03755.1208,E,0.00,,220518,,,A*7117:37:56.776> 
$GPVTG,,$GPGGA,143623.000,5548.7292,N,03755.1208,E,1,08,1.0,145.2,M,14.2,M,,0000*5C17:37:58.008> 
$GPRMC,143623.000,A,5548.7292,N,03755.1208,E,0.00,,220518,,,A*7017:37:58.008> 
$GPVTG,,T,,M,0.00,N,0.0,K,A*1317:37:58.008> 
$GPGGA,143624.000,5548.7292,N,03755.1208,E,1,08,1.0,145.2,M,14.2,M,,0000*5B17:37:58.491> 
$GPRMC,143624.000,A,5548.7292,N,03755.1208,E,0.00,,220518,,,A*7717:37:58.491> 
$GPVTG,,T,,M,0.00,N,0.0,K,A*1317:37:58.491> 
$GPGGA,143624.000,$GPGGA,1436220518,,,A*7617:37:59.234> 
$GPVTG,,T,,M,0.00,N,0.0,K,A*1317:37:59.390> 
,,M,0.00,N,0.0,K,A*1317:37:59.860> 
.1208,E,1,08,1.0,145.2,M,14.2,M,,0000*5A17:37:59.860> 
$GPRMC,143625.000,A,5548.7292,N,03755.1208,E,0.00,,2$GPGGA,143626.000,5548.7292,N,03755.1208,E,1,08,1.0,145.2,M,14.2,M,,0000*5917:38:00.228> 
$GPRMC,143626.000,A,5548.7292,N,03755.1208,E,0.00,,220518,,,A*7517:38:00.640> 
$GPVTG,,T,,M,0.00,N,0.0,K,A*1317:38:00.640> 
A*7517:38:01.022> 
$GPVTG,,T,,M,0.00,N,0.0,K,A*1317:38:01.022> 
08,E,1,08,1.0,145.2,M,14.2,M,,0000*5917:38:01.022> 
9,65,105,47,21,51,228
$GPRMC,143627.000,A,5548.7292,N,03755.1208,E,0.00,,220518,,,A*7417:38:01.500> 
$GPVTG,,T,,M,0.00,N,0.0,K,A*1317:38:01.946> 
,0.00,N,0.0,K,A*1317:38:02.023> 
,5548.7292,N,03755.1208,E,0.00,,220518,,,A*7417:38:02.023> 
$GPVTG,,T,,M17:38:02.023> ,,220518,,,A*7B17:38:02.242> 
$GPVTG,,T,,M,0.00,N,0.0,K,A*1317:38:02.524> 
0.00,N,0.0,K,A*1317:38:02.971> 
PVTG,,T,,M,03755.1208,E,1,08,1.0,145.2,M,14.2,M,,0000*5717:38:02.971> 
$GPRMC,143628.000,A,5548.7292,N,03755.1208,E,0.00$GPGGA,143629.000,5548.7292,N,03755.1208,E,1,08,1.0,145.2,M,14.2,M,,0000*5617:38:03.535> 
$GPRMC,143629.000,A,5548.7292,N,03755.1208,E,0.00,,220518,,,A*7A17:38:03.535> 
$GPVTG,,T,,M,0.00,N,0.0,K,A*1317:38:03.535> 
,03755.1208,E,1,08,1.0,145.2,M,14.2,M,,0000*5E17:38:04.174> 
$GPRMC,143630.000,A,5548.7292,N,03755.1208,E,0.00,,220518,,,A*7217:38:04.393> 
$GPVTG,,T,,M,0.00,N,0.0,K,A*1317:38:04.393> 
,N,03755.1208,E,0.00,,220518,,N,03755.1208,E,0.00,,220518,,,A*7217:38:05.003> 
$GPVTG,,T,,M,0.00,N,0.0,K,548.7292,N,03755.1208,E,0.00,,220518,,,A*7317:38:05.227> 
$GPVTG,,T,,M,0.00,N,0.0,K,A*1317:38:05.743> 
,,M,0.00,N,0.0,K,A*1317:38:05.977> 
,0.00,,220518,,,A*7317:38:05.977> 
$GPVTG,,T5.2,M,14.2,M,,0000*5F17:38:05.977> 
$GPRMC,143631.000,A,5GSV,3,2,10,16,28,311,26,25,20,167,27,20,16,179,31,31,11,240,34*7817:38:06.372> 
$GPGSV,3,3,10,02,04,063,,09,01,350,*7517:38:06.955> 
$GPRMC,143632.000,A,5548.7292,N,03755.1208,E,0.00,,220518,,,A*7017:38:06.955> 
$GPVTG,,T,,M,0.00,N,0.0,K,A*1317:38:06.955> 
$GPGGA,143633.000,5548.7292,N,03755.1208,E,1,08,1.0,145.2,M,14.2,M,,0000*5D17:38:07.608> 
$GPRMC,143633.000,A,5548.7292,N,03755.1208,E,0.00,,220518,,,A*7117:38:07.608> 
$GPVTG,,T,,M,0.00,N,0.0,K,A*1317:38:07.608> 
$GPGGA,143634.000,5548.7290,,220518,,,A*7617:38:08.247> 
$GPVTG,,T,,M,0.00,N,0.0,K,A*1317:38:08.823> 
,N,0.0,K,A*1317:38:09.015> 
617:38:09.015> 
$GPVTG,,T,,M,0.004.2,M,,0000*5A17:38:09.015> 
$GPRMC,143634.000,A,5548.7292,N,03755.1208,E,0.0$GPGGA,143635.000,5548.7292,N,03755.1208,E,1,08,1.0,145.2,M,14.2,M,,0000*5B17:38:09.377> 
$GPRMC,143635.000,A,5548.7292,N,03755.1208,E,0.00,,220518,,,A*7717:38:09.377> 
$GPVTG,,T,,M,0.00,N,0.0,K,A*1317:38:09.377> 
